id,name,is_closed,rating,review_count,address1,zip_code,latitude,longitude,price,phone,hotdogs,sandwiches,pizza,tradamerican,burgers,mexican,grocery,breakfast_brunch,coffee,chinese,italian,newamerican,chicken_wings,delis,bars,salad,seafood,bbq,bakeries,sushi
42nd-street-oyster-bar-rdu-airport-morrisville,42nd street oyster bar - rdu airport,FALSE,2.5,23,2400 John Brantley Blvd,27560,35.8738084,-78.7908957,$$,"NA",FALSE,FALSE,FALSE,FALSE,FALSE,FALSE,FALSE,TRUE,FALSE,FALSE,FALSE,TRUE,FALSE,FALSE,FALSE,FALSE,TRUE,FALSE,FALSE,FALSE
aldi-foods-cary,aldi foods,FALSE,4,17,2303 NW Maynard Rd,27519,35.80284,-78.7859299,$,,FALSE,FALSE,FALSE,FALSE,FALSE,FALSE,TRUE,FALSE,FALSE,FALSE,FALSE,FALSE,FALSE,FALSE,FALSE,FALSE,FALSE,FALSE,FALSE,FALSE
luciano-pizzeria-ristorante-northwest-raleigh,luciano pizzeria ristorante,FALSE,5,2,Crabtree Valley Mall,27612,35.83968059,-78.67879111,$,12102230500,FALSE,FALSE,FALSE,FALSE,FALSE,FALSE,FALSE,FALSE,FALSE,FALSE,TRUE,FALSE,FALSE,FALSE,FALSE,FALSE,FALSE,FALSE,FALSE,FALSE
olive-garden-italian-restaurant-wilson,olive garden italian restaurant,FALSE,3,16,3401 Raleigh Rd Pkwy W,27893,35.74317042,-77.96416043,$$,12522061399,FALSE,FALSE,FALSE,FALSE,FALSE,FALSE,FALSE,FALSE,FALSE,FALSE,TRUE,FALSE,FALSE,FALSE,FALSE,TRUE,FALSE,FALSE,FALSE,FALSE
subway-wilson-4,subway,FALSE,3.5,3,4934 Raleigh Rd,27896,35.7629356,-77.9994278,$,12522067187,TRUE,TRUE,FALSE,FALSE,FALSE,FALSE,FALSE,FALSE,FALSE,FALSE,FALSE,FALSE,FALSE,FALSE,FALSE,FALSE,FALSE,FALSE,FALSE,FALSE
trent-restaurant-pollocksville,trent restaurant,FALSE,5,5,129 Main St,28573,35.00789,-77.2197,$$$,12522247141,FALSE,FALSE,FALSE,TRUE,FALSE,FALSE,FALSE,FALSE,FALSE,FALSE,FALSE,FALSE,FALSE,FALSE,FALSE,FALSE,FALSE,FALSE,FALSE,FALSE
bailey-cafe-bailey-2,bailey cafe,FALSE,4.5,10,12544 Hanover St,27807,35.77895,-78.1184,$,12522352767,FALSE,FALSE,FALSE,TRUE,FALSE,FALSE,FALSE,FALSE,FALSE,FALSE,FALSE,FALSE,FALSE,FALSE,FALSE,FALSE,FALSE,FALSE,FALSE,FALSE
bojangles-wilson-2,bojangles,FALSE,3.5,21,5033 Raleigh Rd Pkwy W,27896,35.7635651,-78.008926399999993,$,12522370026,TRUE,FALSE,FALSE,FALSE,FALSE,FALSE,FALSE,FALSE,FALSE,FALSE,FALSE,FALSE,FALSE,FALSE,FALSE,FALSE,FALSE,FALSE,FALSE,FALSE
el-tapatio-mexican-restaurant-wilson-2,el tapatio mexican restaurant,FALSE,3.5,15,2921 Raleigh Road Pkwy W,27896,35.7384033,-77.9560242,$$,12522370687,FALSE,FALSE,FALSE,FALSE,FALSE,TRUE,FALSE,FALSE,FALSE,FALSE,FALSE,FALSE,FALSE,FALSE,FALSE,FALSE,FALSE,FALSE,FALSE,FALSE
best-n-burgers-wilson,best-n-burgers,FALSE,4.5,69,4916 Hayes Pl,27893,35.76229,-78.0072,$,12522372555,FALSE,FALSE,FALSE,FALSE,TRUE,FALSE,FALSE,FALSE,FALSE,FALSE,FALSE,FALSE,FALSE,FALSE,FALSE,FALSE,FALSE,FALSE,FALSE,FALSE
san-jose-mexican-restaurant-wilson,san jose mexican restaurant,FALSE,3.5,22,1700 Raleigh Rd Pkwy W,27896,35.7361336,-77.9497452,$,12522377749,FALSE,FALSE,FALSE,FALSE,FALSE,TRUE,FALSE,FALSE,FALSE,FALSE,FALSE,FALSE,FALSE,FALSE,FALSE,FALSE,FALSE,FALSE,FALSE,FALSE
walmart-supercenter-wilson,walmart supercenter,FALSE,3.5,3,2500 Forest Hills Rd W,27893,35.73392,-77.94959,$,12522439300,FALSE,FALSE,FALSE,FALSE,FALSE,FALSE,TRUE,FALSE,FALSE,FALSE,FALSE,FALSE,FALSE,FALSE,FALSE,FALSE,FALSE,FALSE,FALSE,FALSE
mcqueens-interiors-morehead-city,mcqueen's interiors,FALSE,5,1,4426 Arendell St,28557,34.73042,-76.7773799,"NA",12522473175,FALSE,FALSE,FALSE,FALSE,FALSE,FALSE,FALSE,FALSE,FALSE,FALSE,FALSE,FALSE,FALSE,FALSE,FALSE,FALSE,FALSE,FALSE,FALSE,FALSE
bp-wilson,bp,FALSE,5,1,2825 US Hwy 301 S,27893,35.69238515,-77.94369968,"NA",12522919777,FALSE,FALSE,FALSE,FALSE,FALSE,FALSE,FALSE,FALSE,FALSE,FALSE,FALSE,FALSE,FALSE,FALSE,FALSE,FALSE,FALSE,FALSE,FALSE,FALSE
sonic-drive-in-wilson,sonic drive-in,FALSE,3.5,3,2401 Forest Hills Rd W,27893,35.73278,-77.9526999,$,12522930599,TRUE,FALSE,FALSE,FALSE,FALSE,FALSE,FALSE,FALSE,FALSE,FALSE,FALSE,FALSE,FALSE,FALSE,FALSE,FALSE,FALSE,FALSE,FALSE,FALSE
olive-garden-italian-restaurant-rocky-mount-2,olive garden italian restaurant,FALSE,3,12,1140 N Wesleyan Blvd,27804,35.9726906,-77.8058624,$$,12524421329,FALSE,FALSE,FALSE,FALSE,FALSE,FALSE,FALSE,FALSE,FALSE,FALSE,TRUE,FALSE,FALSE,FALSE,FALSE,TRUE,FALSE,FALSE,FALSE,FALSE
cracker-barrel-old-country-store-and-restaurant-rocky-mt,cracker barrel old country store & restaurant,FALSE,3,13,238 Enterprise Dr,27804,35.9749489,-77.8445206,$,12524430679,FALSE,FALSE,FALSE,FALSE,FALSE,FALSE,FALSE,TRUE,FALSE,FALSE,FALSE,TRUE,FALSE,FALSE,FALSE,FALSE,FALSE,FALSE,FALSE,FALSE
gardners-barbecue-restaurant-rocky-mount-5,gardner's barbecue restaurant,FALSE,3,11,3651 Sunset Ave,27804,35.9637822,-77.8532155,$,12524433996,FALSE,FALSE,FALSE,TRUE,FALSE,FALSE,FALSE,FALSE,FALSE,FALSE,FALSE,FALSE,FALSE,FALSE,FALSE,FALSE,FALSE,TRUE,FALSE,FALSE
la-perla-tapatia-rocky-mount,la perla tapatia,FALSE,4,20,126 S Winstead Ave,27804,35.96244136,-77.84957157,$$,12524510808,FALSE,FALSE,FALSE,FALSE,FALSE,TRUE,FALSE,FALSE,FALSE,FALSE,FALSE,FALSE,FALSE,FALSE,FALSE,FALSE,FALSE,FALSE,FALSE,FALSE
san-jose-mexican-restaurant-roanoke-rapids,san jose mexican restaurant,FALSE,4.5,46,309 Premier Blvd,27870,36.4250138,-77.6330658,$$,12525375711,FALSE,FALSE,FALSE,FALSE,FALSE,TRUE,FALSE,FALSE,FALSE,FALSE,FALSE,FALSE,FALSE,FALSE,FALSE,FALSE,FALSE,FALSE,FALSE,FALSE
seven-springs-restaurant-seven-springs-2,seven springs restaurant,FALSE,5,4,400 Main St,28578,35.2261162,-77.8463516,$,12525691521,FALSE,FALSE,FALSE,FALSE,FALSE,FALSE,FALSE,FALSE,FALSE,FALSE,FALSE,FALSE,FALSE,FALSE,FALSE,FALSE,FALSE,FALSE,FALSE,FALSE
la-casetta-italian-restaurant-bethel,la casetta italian restaurant,FALSE,4.5,10,7434 N Main St,27812,35.8087883,-77.3727493,$$,12528256699,FALSE,FALSE,FALSE,FALSE,FALSE,FALSE,FALSE,FALSE,FALSE,FALSE,TRUE,FALSE,FALSE,FALSE,FALSE,FALSE,FALSE,FALSE,FALSE,FALSE
natural-health-strategies-chapel-hill,natural health strategies,FALSE,5,3,50101 Governors Dr,27517,35.8546622,-79.0249666,"NA",13018010462,FALSE,FALSE,FALSE,FALSE,FALSE,FALSE,FALSE,FALSE,FALSE,FALSE,FALSE,FALSE,FALSE,FALSE,FALSE,FALSE,FALSE,FALSE,FALSE,FALSE
claudia-zamora-fayetteville-2,claudia zamora,FALSE,5,5,1705 Calista Cir,28304,35.017716,-78.9882949,"NA",13057473004,FALSE,FALSE,FALSE,FALSE,FALSE,FALSE,FALSE,FALSE,FALSE,FALSE,FALSE,FALSE,FALSE,FALSE,FALSE,FALSE,FALSE,FALSE,FALSE,FALSE
one-vision-studios-greensboro,one vision studios,FALSE,5,1,2100 E Wendover Ave,27405,36.08689602,-79.7577246,"NA",13342184143,FALSE,FALSE,FALSE,FALSE,FALSE,FALSE,FALSE,FALSE,FALSE,FALSE,FALSE,FALSE,FALSE,FALSE,FALSE,FALSE,FALSE,FALSE,FALSE,FALSE
la-fiesta-restaurante-mexicano-burlington,la fiesta restaurante mexicano,FALSE,4,42,1824 S Church St,27215,36.0825699,-79.46019,$$,13362270144,FALSE,FALSE,FALSE,FALSE,FALSE,TRUE,FALSE,FALSE,FALSE,FALSE,FALSE,FALSE,FALSE,FALSE,FALSE,FALSE,FALSE,FALSE,FALSE,FALSE
taqueria-guerrero-graham,taqueria guerrero,FALSE,3.5,10,921 S Main St,27253,36.0518799,-79.3997574,$,13362277133,FALSE,FALSE,FALSE,FALSE,FALSE,TRUE,FALSE,FALSE,FALSE,FALSE,FALSE,FALSE,FALSE,FALSE,FALSE,FALSE,FALSE,FALSE,FALSE,FALSE
oak-city-fish-and-chips-raleigh,oak city fish & chips,FALSE,4,24,511 S Wilmington St,27601,35.77371,-78.63818,$$,13362532219,FALSE,FALSE,FALSE,FALSE,FALSE,FALSE,FALSE,FALSE,FALSE,FALSE,FALSE,FALSE,FALSE,FALSE,FALSE,FALSE,FALSE,FALSE,FALSE,FALSE
clean-air-lawn-care-durham-2,clean air lawn care,FALSE,5,3,"NA",27253,36.4315799,-80.36696,"NA",13362618066,FALSE,FALSE,FALSE,FALSE,FALSE,FALSE,FALSE,FALSE,FALSE,FALSE,FALSE,FALSE,FALSE,FALSE,FALSE,FALSE,FALSE,FALSE,FALSE,FALSE
table-16-restaurant-greensboro,table 16 restaurant,FALSE,4,111,600 S Elm St,27406,36.065906,-79.791045,$$$,13362798525,FALSE,TRUE,FALSE,FALSE,FALSE,FALSE,FALSE,FALSE,FALSE,FALSE,FALSE,TRUE,FALSE,FALSE,FALSE,FALSE,FALSE,FALSE,FALSE,FALSE
buckley-outdoor-services-timberlake-2,buckley outdoor services,FALSE,5,1,Hollis Way,27583,36.3378688,-78.8841649,"NA",13362903959,FALSE,FALSE,FALSE,FALSE,FALSE,FALSE,FALSE,FALSE,FALSE,FALSE,FALSE,FALSE,FALSE,FALSE,FALSE,FALSE,FALSE,FALSE,FALSE,FALSE
la-cocina-mexican-restaurant-roxboro,la cocina mexican restaurant,FALSE,4,15,241 S Madison Blvd,27573,36.3918686,-78.9890213,$$,13363300300,FALSE,FALSE,FALSE,FALSE,FALSE,TRUE,FALSE,FALSE,FALSE,FALSE,FALSE,FALSE,FALSE,FALSE,FALSE,FALSE,FALSE,FALSE,FALSE,FALSE
orange-county-speedway-rougemont,orange county speedway,FALSE,4,5,9740 Nc Highway 57,27572,36.230381,-78.9618835,"NA",13363641222,FALSE,FALSE,FALSE,FALSE,FALSE,FALSE,FALSE,FALSE,FALSE,FALSE,FALSE,FALSE,FALSE,FALSE,FALSE,FALSE,FALSE,FALSE,FALSE,FALSE
mountain-view-restaurant-pilot-mountain,mountain view restaurant,FALSE,4.5,20,729 S Key St,27041,36.377449,-80.4849396,$,13363689180,FALSE,FALSE,FALSE,FALSE,FALSE,FALSE,FALSE,TRUE,FALSE,FALSE,FALSE,FALSE,FALSE,FALSE,FALSE,FALSE,FALSE,FALSE,FALSE,FALSE
classic-import-auto-service-greensboro-2,classic import auto service,FALSE,5,4,134 Paisley St,27401,36.078215899999996,-79.7918049,"NA",13364300908,FALSE,FALSE,FALSE,FALSE,FALSE,FALSE,FALSE,FALSE,FALSE,FALSE,FALSE,FALSE,FALSE,FALSE,FALSE,FALSE,FALSE,FALSE,FALSE,FALSE
ciao-pizza-italian-restaurant-whitsett,ciao pizza italian restaurant,FALSE,4,34,947 Golf House Rd W,27377,36.0638099,-79.60627,$$,13364466565,FALSE,FALSE,TRUE,FALSE,FALSE,FALSE,FALSE,FALSE,FALSE,FALSE,TRUE,FALSE,FALSE,FALSE,FALSE,FALSE,FALSE,FALSE,FALSE,FALSE
griffin-wing-productions-raleigh,griffin wing productions,FALSE,5,1,"NA",27617,35.9041743,-78.8058426,"NA",13364621103,FALSE,FALSE,FALSE,FALSE,FALSE,FALSE,FALSE,FALSE,FALSE,FALSE,FALSE,FALSE,FALSE,FALSE,FALSE,FALSE,FALSE,FALSE,FALSE,FALSE
la-cocina-burlington,la cocina,FALSE,3.5,27,309 Huffman Mill Rd,27215,36.0769653,-79.4874115,$$,13365380049,FALSE,FALSE,FALSE,FALSE,FALSE,TRUE,FALSE,FALSE,FALSE,FALSE,FALSE,FALSE,FALSE,FALSE,FALSE,FALSE,FALSE,FALSE,FALSE,FALSE
san-marcos-mexican-restaurant-burlington,san marcos mexican restaurant,FALSE,4,36,3111 Waltham Blvd,27215,36.06902208,-79.50876575,$$,13365382708,FALSE,FALSE,FALSE,FALSE,FALSE,TRUE,FALSE,FALSE,FALSE,FALSE,FALSE,FALSE,FALSE,FALSE,FALSE,FALSE,TRUE,FALSE,FALSE,FALSE
el-burrito-loco-burlington-2,el burrito loco,FALSE,4.5,28,3409 S Church St,27215,36.08118153,-79.50926256,$,13365386156,FALSE,FALSE,FALSE,FALSE,FALSE,TRUE,FALSE,FALSE,FALSE,FALSE,FALSE,FALSE,FALSE,FALSE,FALSE,FALSE,FALSE,FALSE,FALSE,FALSE
kemco-of-burlington-graham-3,kemco of burlington,FALSE,5,1,428 Auto Park Dr,27253,36.059272,-79.405238,"NA",13365841166,FALSE,FALSE,FALSE,FALSE,FALSE,FALSE,FALSE,FALSE,FALSE,FALSE,FALSE,FALSE,FALSE,FALSE,FALSE,FALSE,FALSE,FALSE,FALSE,FALSE
cracker-barrel-old-country-store-burlington-2,cracker barrel old country store,FALSE,3.5,22,850 Huffman Mill Rd,27215,36.06892,-79.49525,$$,13365843833,FALSE,FALSE,FALSE,TRUE,FALSE,FALSE,FALSE,TRUE,FALSE,FALSE,FALSE,FALSE,FALSE,FALSE,FALSE,FALSE,FALSE,FALSE,FALSE,FALSE
cancun-mexican-restaurant-burlington,cancun mexican restaurant,FALSE,3,17,3153 Garden Rd,27215,36.0690711,-79.4990458,$$,13365844494,FALSE,FALSE,FALSE,FALSE,FALSE,TRUE,FALSE,FALSE,FALSE,FALSE,FALSE,FALSE,FALSE,FALSE,FALSE,FALSE,FALSE,FALSE,FALSE,FALSE
freddys-frozen-custard-and-steakburgers-burlington,freddy's frozen custard & steakburgers,FALSE,3.5,16,1421 Boone Station Dr,27215,36.0687218,-79.5138321,$,13365860106,FALSE,FALSE,FALSE,FALSE,TRUE,FALSE,FALSE,FALSE,FALSE,FALSE,FALSE,FALSE,FALSE,FALSE,FALSE,FALSE,FALSE,FALSE,FALSE,FALSE
toreros-roxboro,torero's,FALSE,3.5,12,904 N Madison Blvd,27573,36.40721894,-78.97544091,$$,13365998022,FALSE,FALSE,FALSE,FALSE,FALSE,TRUE,FALSE,FALSE,FALSE,FALSE,FALSE,FALSE,FALSE,FALSE,FALSE,FALSE,FALSE,FALSE,FALSE,FALSE
blue-denim-restaurant-greensboro,blue denim restaurant,FALSE,4,65,217 S Elm St,27401,36.07102,-79.7902,$$,13366765689,FALSE,FALSE,FALSE,FALSE,FALSE,FALSE,FALSE,FALSE,FALSE,FALSE,FALSE,FALSE,FALSE,FALSE,FALSE,TRUE,FALSE,FALSE,FALSE,FALSE
davids-restaurant-asheboro,david's restaurant,FALSE,4,47,709 S Fayetteville St,27203,35.6988,-79.81457,$,13366830000,FALSE,FALSE,FALSE,FALSE,FALSE,TRUE,FALSE,FALSE,FALSE,FALSE,TRUE,TRUE,FALSE,FALSE,FALSE,FALSE,FALSE,FALSE,FALSE,FALSE
bojanglesrestaurants-lewisville,bojangles'restaurants,FALSE,3.5,4,1423 Lewisville Clemmons,27023,36.0784616,-80.3889632,$,13367780414,FALSE,FALSE,FALSE,FALSE,FALSE,FALSE,FALSE,FALSE,FALSE,FALSE,FALSE,FALSE,FALSE,FALSE,FALSE,FALSE,FALSE,FALSE,FALSE,FALSE
mjs-restaurant-and-catering-greensboro,mj's restaurant & catering,FALSE,4.5,49,620 Dolley Madison Rd,27410,36.0885,-79.88428,$$$,13368524889,FALSE,FALSE,FALSE,FALSE,FALSE,FALSE,FALSE,FALSE,FALSE,FALSE,FALSE,FALSE,FALSE,FALSE,FALSE,FALSE,TRUE,FALSE,FALSE,FALSE
cicciones-restaurant-lewisville,cicciones restaurant,FALSE,4,33,156 Lowes Foods Dr,27023,36.1012138,-80.411814,$$,13369454619,FALSE,FALSE,FALSE,FALSE,FALSE,FALSE,FALSE,FALSE,FALSE,FALSE,TRUE,FALSE,FALSE,FALSE,FALSE,FALSE,FALSE,FALSE,FALSE,FALSE
greystone-village-shopping-center-raleigh,greystone village shopping center,FALSE,5,1,7713 Lead Mine Rd,27615,35.8869019,-78.659729,"NA",15164661800,FALSE,FALSE,FALSE,FALSE,FALSE,FALSE,FALSE,FALSE,FALSE,FALSE,FALSE,FALSE,FALSE,FALSE,FALSE,FALSE,FALSE,FALSE,FALSE,FALSE
marmac-construction-inc-wake-forest,marmac construction inc,FALSE,5,6,1201 Miracle Dr,27587,35.964758,-78.524608,"NA",16463143063,FALSE,FALSE,FALSE,FALSE,FALSE,FALSE,FALSE,FALSE,FALSE,FALSE,FALSE,FALSE,FALSE,FALSE,FALSE,FALSE,FALSE,FALSE,FALSE,FALSE
double-bomber-brew-tours-holly-springs,double bomber brew tours,FALSE,5,4,,27540,35.64063,-78.83114,"NA",16692322739,FALSE,FALSE,FALSE,FALSE,FALSE,FALSE,FALSE,FALSE,FALSE,FALSE,FALSE,FALSE,FALSE,FALSE,FALSE,FALSE,FALSE,FALSE,FALSE,FALSE
southern-womens-show-raleigh,southern women's show,FALSE,4,9,1025 Blue Ridge Rd,27607,35.79567,-78.71228,"NA",17043766594,FALSE,FALSE,FALSE,FALSE,FALSE,FALSE,FALSE,FALSE,FALSE,FALSE,FALSE,FALSE,FALSE,FALSE,FALSE,FALSE,FALSE,FALSE,FALSE,FALSE
badin-inn-restaurant-albemarle,badin inn restaurant,FALSE,4.5,3,The Badin Inn & Golf Club,28001,35.4010696,-80.111412,"NA",17044223683,FALSE,FALSE,FALSE,TRUE,FALSE,FALSE,FALSE,FALSE,FALSE,FALSE,FALSE,FALSE,FALSE,FALSE,FALSE,FALSE,FALSE,FALSE,FALSE,FALSE
mama-voulas-durham,mama voulas,FALSE,4.5,7,,27703,35.98893,-78.87534,"NA",17577843528,FALSE,FALSE,FALSE,FALSE,FALSE,FALSE,FALSE,FALSE,FALSE,FALSE,FALSE,FALSE,FALSE,FALSE,FALSE,FALSE,FALSE,FALSE,FALSE,FALSE
cholanad-chapel-hill,cholanad,FALSE,4,233,308 W Franklin St,27516,35.91178,-79.06022,$$,18002465262,FALSE,FALSE,FALSE,FALSE,FALSE,FALSE,FALSE,FALSE,FALSE,FALSE,FALSE,FALSE,FALSE,FALSE,FALSE,FALSE,FALSE,FALSE,FALSE,FALSE
leaffilter-of-raleigh-morrisville,leaffilter of raleigh,FALSE,3,2,175 Southport Dr,27560,35.7962844,-78.8030933,"NA",18002906106,FALSE,FALSE,FALSE,FALSE,FALSE,FALSE,FALSE,FALSE,FALSE,FALSE,FALSE,FALSE,FALSE,FALSE,FALSE,FALSE,FALSE,FALSE,FALSE,FALSE
rock-n-roll-raleigh-marathon-and-1-2-marathon-raleigh,rock 'n' roll raleigh marathon & 1/2 marathon,FALSE,4,5,2 E S St,27601,35.7795897,-78.6381787,"NA",18003111255,FALSE,FALSE,FALSE,FALSE,FALSE,FALSE,FALSE,FALSE,FALSE,FALSE,FALSE,FALSE,FALSE,FALSE,FALSE,FALSE,FALSE,FALSE,FALSE,FALSE
days-inn-raleigh-airport-research-triangle-park-morrisville,days inn raleigh-airport-research triangle park,FALSE,2.5,11,1000 Airport Blvd,27560,35.85809,-78.81954,$,18003291073,FALSE,FALSE,FALSE,FALSE,FALSE,FALSE,FALSE,FALSE,FALSE,FALSE,FALSE,FALSE,FALSE,FALSE,FALSE,FALSE,FALSE,FALSE,FALSE,FALSE
best-western-raleigh-inn-and-suites-raleigh,holiday inn express & suites raleigh ne - medical ctr area,FALSE,3,7,3618 New Bern Ave,27610,35.7969235,-78.57846925,$$,18003458082,FALSE,FALSE,FALSE,FALSE,FALSE,FALSE,FALSE,FALSE,FALSE,FALSE,FALSE,FALSE,FALSE,FALSE,FALSE,FALSE,FALSE,FALSE,FALSE,FALSE
southwest-airlines-raleigh,southwest airlines,FALSE,3,24,Raleigh Durham Airport,27601,35.873905,-78.790641,"NA",18004359792,FALSE,FALSE,FALSE,FALSE,FALSE,FALSE,FALSE,FALSE,FALSE,FALSE,FALSE,FALSE,FALSE,FALSE,FALSE,FALSE,FALSE,FALSE,FALSE,FALSE
delta-airlines-morrisville,delta airlines,FALSE,3,17,John Brantley Blvd,27560,35.87830844,-78.79134606,"NA",18005324777,FALSE,FALSE,FALSE,FALSE,FALSE,FALSE,FALSE,FALSE,FALSE,FALSE,FALSE,FALSE,FALSE,FALSE,FALSE,FALSE,FALSE,FALSE,FALSE,FALSE
yourmechanic-raleigh-3,yourmechanic,FALSE,5,17,"NA",27601,35.773993,-78.61628051,"NA",18007016230,FALSE,FALSE,FALSE,FALSE,FALSE,FALSE,FALSE,FALSE,FALSE,FALSE,FALSE,FALSE,FALSE,FALSE,FALSE,FALSE,FALSE,FALSE,FALSE,FALSE
walnut-creek-ampitheatre-raleigh,walnut creek ampitheatre,FALSE,3,44,3801 Rock Quarry Rd,27610,35.7505417,-78.5783005,$$,18007453000,FALSE,FALSE,FALSE,FALSE,FALSE,FALSE,FALSE,FALSE,FALSE,FALSE,FALSE,FALSE,FALSE,FALSE,FALSE,FALSE,FALSE,FALSE,FALSE,FALSE
extended-stay-america-raleigh-cary-regency-parkway-north-cary-2,extended stay america - raleigh - cary - regency parkway north,FALSE,1,8,1500 Regency Parkway,27518,35.73469,-78.7868,$,18008043724,FALSE,FALSE,FALSE,FALSE,FALSE,FALSE,FALSE,FALSE,FALSE,FALSE,FALSE,FALSE,FALSE,FALSE,FALSE,FALSE,FALSE,FALSE,FALSE,FALSE
coastal-federal-credit-union-garner-2,coastal federal credit union,FALSE,5,1,1060 Timber D E,27529,35.6891289,-78.5795364,"NA",18008684262,FALSE,FALSE,FALSE,FALSE,FALSE,FALSE,FALSE,FALSE,FALSE,FALSE,FALSE,FALSE,FALSE,FALSE,FALSE,FALSE,FALSE,FALSE,FALSE,FALSE
yelps-boxing-and-brews-cary,yelp's boxing & brews,FALSE,5,10,2036 Renaissance Park Pl,27513,35.8263245,-78.770874,"NA",18134932656,FALSE,FALSE,FALSE,FALSE,FALSE,FALSE,FALSE,FALSE,FALSE,FALSE,FALSE,FALSE,FALSE,FALSE,FALSE,FALSE,FALSE,FALSE,FALSE,FALSE
got-to-be-nc-competition-dining-raleigh,got to be nc competition dining,FALSE,4.5,12,1705 E Millbrook,27609,35.8506091,-78.60620495,$$$,18282659075,FALSE,FALSE,FALSE,FALSE,FALSE,FALSE,FALSE,FALSE,FALSE,FALSE,FALSE,TRUE,FALSE,FALSE,FALSE,FALSE,FALSE,FALSE,FALSE,FALSE
madigan-realty-keller-williams-raleigh-downtown-raleigh-2,madigan realty - keller williams raleigh downtown,FALSE,5,1,510 Glenwood Ave,27603,35.7870804,-78.6469934,"NA",18284003267,FALSE,FALSE,FALSE,FALSE,FALSE,FALSE,FALSE,FALSE,FALSE,FALSE,FALSE,FALSE,FALSE,FALSE,FALSE,FALSE,FALSE,FALSE,FALSE,FALSE
post-parkside-at-wade-raleigh,post parkside at wade,FALSE,3,8,5443 Wade Park Boulevard,27607,35.8086353,-78.7344413,"NA",18442174988,FALSE,FALSE,FALSE,FALSE,FALSE,FALSE,FALSE,FALSE,FALSE,FALSE,FALSE,FALSE,FALSE,FALSE,FALSE,FALSE,FALSE,FALSE,FALSE,FALSE
parkside-five-points-raleigh,parkside five points,FALSE,4,1,2609 McNeill St,27608,35.8150664,-78.6304929,"NA",18442311825,FALSE,FALSE,FALSE,FALSE,FALSE,FALSE,FALSE,FALSE,FALSE,FALSE,FALSE,FALSE,FALSE,FALSE,FALSE,FALSE,FALSE,FALSE,FALSE,FALSE
regal-cinemas-beaver-creek-12-apex-2,regal cinemas beaver creek 12,FALSE,3.5,21,1441 Beaver Creek Commons Drive,27502,35.7449705,-78.8827691,"NA",18444627342,FALSE,FALSE,FALSE,FALSE,FALSE,FALSE,FALSE,FALSE,FALSE,FALSE,FALSE,FALSE,FALSE,FALSE,FALSE,FALSE,FALSE,FALSE,FALSE,FALSE
time-warner-cable-cary,time warner cable,FALSE,1.5,60,1307 NW Maynard Rd,27513,35.786005,-78.811065,"NA",18447572833,FALSE,FALSE,FALSE,FALSE,FALSE,FALSE,FALSE,FALSE,FALSE,FALSE,FALSE,FALSE,FALSE,FALSE,FALSE,FALSE,FALSE,FALSE,FALSE,FALSE
bulkogi-truck-durham,bulkogi truck,FALSE,5,32,"NA",27701,35.99922,-78.90362,$,18475306910,FALSE,FALSE,FALSE,FALSE,FALSE,FALSE,FALSE,FALSE,FALSE,FALSE,FALSE,FALSE,FALSE,FALSE,FALSE,FALSE,FALSE,FALSE,FALSE,FALSE
national-car-rental-morrisville-3,national car rental,FALSE,3.5,121,1001 Rental Car Dr,27623,35.86878803,-78.80138648,"NA",18552374219,FALSE,FALSE,FALSE,FALSE,FALSE,FALSE,FALSE,FALSE,FALSE,FALSE,FALSE,FALSE,FALSE,FALSE,FALSE,FALSE,FALSE,FALSE,FALSE,FALSE
the-villages-at-pecan-grove-holly-springs,the villages at pecan grove,FALSE,5,1,4000 Penuche Way,27540,35.65461315,-78.83224851,"NA",18555989635,FALSE,FALSE,FALSE,FALSE,FALSE,FALSE,FALSE,FALSE,FALSE,FALSE,FALSE,FALSE,FALSE,FALSE,FALSE,FALSE,FALSE,FALSE,FALSE,FALSE
frontpoint-home-security-raleigh,frontpoint home security,FALSE,4,2,"NA",27608,35.80871,-78.64572,"NA",18558148269,FALSE,FALSE,FALSE,FALSE,FALSE,FALSE,FALSE,FALSE,FALSE,FALSE,FALSE,FALSE,FALSE,FALSE,FALSE,FALSE,FALSE,FALSE,FALSE,FALSE
aldi-wake-forest,aldi,FALSE,4.5,12,2132 S Main St,27587,35.94835,-78.53532,$,18559552534,FALSE,FALSE,FALSE,FALSE,FALSE,FALSE,TRUE,FALSE,FALSE,FALSE,FALSE,FALSE,FALSE,FALSE,FALSE,FALSE,FALSE,FALSE,FALSE,FALSE
desi-mazaa-cary,desi mazaa,FALSE,4,4,212 Grande Heights Dr,27513,35.80403798,-78.77954386,$$,18644921516,FALSE,FALSE,FALSE,FALSE,FALSE,FALSE,FALSE,FALSE,FALSE,FALSE,FALSE,FALSE,FALSE,FALSE,FALSE,FALSE,FALSE,FALSE,FALSE,FALSE
the-farmery-durham-3,the farmery,FALSE,5,23,800 Park Office Dr,27709,35.89612518,-78.87004745,$,18649217967,FALSE,FALSE,FALSE,FALSE,FALSE,FALSE,FALSE,FALSE,FALSE,FALSE,FALSE,FALSE,FALSE,FALSE,FALSE,FALSE,FALSE,FALSE,FALSE,FALSE
village-green-apartments-raleigh-2,village green apartments,FALSE,2.5,2,2000 Village Bluff Pl,27603,35.7537155,-78.6670456,"NA",18662982906,FALSE,FALSE,FALSE,FALSE,FALSE,FALSE,FALSE,FALSE,FALSE,FALSE,FALSE,FALSE,FALSE,FALSE,FALSE,FALSE,FALSE,FALSE,FALSE,FALSE
budget-blinds-serving-durham-durham,budget blinds serving durham,FALSE,3,4,5306 NC Hwy 55,27713,35.89151,-78.8967361,"NA",18664452293,FALSE,FALSE,FALSE,FALSE,FALSE,FALSE,FALSE,FALSE,FALSE,FALSE,FALSE,FALSE,FALSE,FALSE,FALSE,FALSE,FALSE,FALSE,FALSE,FALSE
certapro-painters-of-north-raleigh-raleigh,certapro painters of north raleigh,FALSE,3,7,6104 Oak Forest Dr.,27616,35.8646507,-78.590538,"NA",18666707549,FALSE,FALSE,FALSE,FALSE,FALSE,FALSE,FALSE,FALSE,FALSE,FALSE,FALSE,FALSE,FALSE,FALSE,FALSE,FALSE,FALSE,FALSE,FALSE,FALSE
camden-crest-raleigh,camden crest,FALSE,2.5,10,5200 Summit Manor Lane,27613,35.8749733,-78.7207336,"NA",18667987441,FALSE,FALSE,FALSE,FALSE,FALSE,FALSE,FALSE,FALSE,FALSE,FALSE,FALSE,FALSE,FALSE,FALSE,FALSE,FALSE,FALSE,FALSE,FALSE,FALSE
uncle-bobs-self-storage-raleigh-4,uncle bob's self storage,FALSE,4,5,5000 Atlantic Ave.,27616,35.8514709,-78.5990906,"NA",18668382192,FALSE,FALSE,FALSE,FALSE,FALSE,FALSE,FALSE,FALSE,FALSE,FALSE,FALSE,FALSE,FALSE,FALSE,FALSE,FALSE,FALSE,FALSE,FALSE,FALSE
california-closets-raleigh,california closets,FALSE,5,5,8411 Glenwood Ave,27612,35.87897,-78.7355,$$,18668573335,FALSE,FALSE,FALSE,FALSE,FALSE,FALSE,FALSE,FALSE,FALSE,FALSE,FALSE,FALSE,FALSE,FALSE,FALSE,FALSE,FALSE,FALSE,FALSE,FALSE
still-life-raleigh-raleigh,still life raleigh,FALSE,3,29,401 N West St,27603,35.785445,-78.6459541,$$,18775905478,FALSE,FALSE,FALSE,FALSE,FALSE,FALSE,FALSE,FALSE,FALSE,FALSE,FALSE,FALSE,FALSE,FALSE,TRUE,FALSE,FALSE,FALSE,FALSE,FALSE
insomnia-cookies-raleigh-2,insomnia cookies,FALSE,3.5,43,2302 Hillsborough St,27607,35.7873834,-78.66612847,$,18776326654,FALSE,FALSE,FALSE,FALSE,FALSE,FALSE,FALSE,FALSE,FALSE,FALSE,FALSE,FALSE,FALSE,FALSE,FALSE,FALSE,FALSE,FALSE,TRUE,FALSE
safe-streets-usa-adt-authorized-dealer-raleigh,safe streets usa - adt authorized dealer,FALSE,1,1,"NA",27604,35.81798,-78.56751,"NA",18777312850,FALSE,FALSE,FALSE,FALSE,FALSE,FALSE,FALSE,FALSE,FALSE,FALSE,FALSE,FALSE,FALSE,FALSE,FALSE,FALSE,FALSE,FALSE,FALSE,FALSE
ez-moving-and-storage-raleigh,ez moving & storage,FALSE,1,8,,27606,35.74223,-78.7223,"NA",18778607729,FALSE,FALSE,FALSE,FALSE,FALSE,FALSE,FALSE,FALSE,FALSE,FALSE,FALSE,FALSE,FALSE,FALSE,FALSE,FALSE,FALSE,FALSE,FALSE,FALSE
hawthorn-suites-by-wyndham-raleigh-raleigh,hawthorn suites by wyndham raleigh,FALSE,3.5,11,1020 Buck Jones Road,27606,35.770724,-78.741343,$$,18882935571,FALSE,FALSE,FALSE,FALSE,FALSE,FALSE,FALSE,FALSE,FALSE,FALSE,FALSE,FALSE,FALSE,FALSE,FALSE,FALSE,FALSE,FALSE,FALSE,FALSE
mercedes-benz-of-cary-cary,mercedes-benz of cary,FALSE,4.5,52,2400 Auto Park Blvd,27511,35.73799,-78.81447,"NA",18883770921,FALSE,FALSE,FALSE,FALSE,FALSE,FALSE,FALSE,FALSE,FALSE,FALSE,FALSE,FALSE,FALSE,FALSE,FALSE,FALSE,FALSE,FALSE,FALSE,FALSE
just-push-play-media-group-raleigh,just push play media group,FALSE,1,1,,27613,35.90437,-78.70896,"NA",18885107529,FALSE,FALSE,FALSE,FALSE,FALSE,FALSE,FALSE,FALSE,FALSE,FALSE,FALSE,FALSE,FALSE,FALSE,FALSE,FALSE,FALSE,FALSE,FALSE,FALSE
microtel-inn-and-suites-by-wyndham-raleigh-durham-airport-morrisville,microtel inn & suites by wyndham raleigh durham airport,FALSE,2.5,20,104 Factory Shops Road,27560,35.8615438,-78.8183105,$,18885951878,FALSE,FALSE,FALSE,FALSE,FALSE,FALSE,FALSE,FALSE,FALSE,FALSE,FALSE,FALSE,FALSE,FALSE,FALSE,FALSE,FALSE,FALSE,FALSE,FALSE
wingate-by-wyndham-garner-2,wingate by wyndham,FALSE,3.5,8,1542 Mechanical Blvd,27529,35.72536,-78.64395,$$,18885953511,FALSE,FALSE,FALSE,FALSE,FALSE,FALSE,FALSE,FALSE,FALSE,FALSE,FALSE,FALSE,FALSE,FALSE,FALSE,FALSE,FALSE,FALSE,FALSE,FALSE
a-formal-affair-limousine-service-burlington,a formal affair limousine service,FALSE,2.5,14,405 Maple Ave,27216,36.0893402,-79.4358368,"NA",18887536653,FALSE,FALSE,FALSE,FALSE,FALSE,FALSE,FALSE,FALSE,FALSE,FALSE,FALSE,FALSE,FALSE,FALSE,FALSE,FALSE,FALSE,FALSE,FALSE,FALSE
the-mosquito-authority-morrisville-4,the mosquito authority,FALSE,5,2,2200 Gateway Centre Blvd,27560,35.79159043,-78.66089854,"NA",18887842310,FALSE,FALSE,FALSE,FALSE,FALSE,FALSE,FALSE,FALSE,FALSE,FALSE,FALSE,FALSE,FALSE,FALSE,FALSE,FALSE,FALSE,FALSE,FALSE,FALSE
pad-thai-fayetteville,pad thai,FALSE,4,24,7737 Good Middling Dr,28304,35.026989,-79.0549622,$$,19102529724,FALSE,FALSE,FALSE,FALSE,FALSE,FALSE,FALSE,FALSE,FALSE,FALSE,FALSE,FALSE,FALSE,FALSE,FALSE,FALSE,FALSE,FALSE,FALSE,FALSE
captain-ds-restaurants-jacksonville,captain d's restaurants,TRUE,2,4,1417 N Marine Blvd,28540,34.76688,-77.40785,$,19103461100,FALSE,FALSE,FALSE,FALSE,FALSE,FALSE,FALSE,FALSE,FALSE,FALSE,FALSE,FALSE,FALSE,FALSE,FALSE,FALSE,TRUE,FALSE,FALSE,FALSE
macs-speed-shop-fayetteville,mac's speed shop,FALSE,4,922,482 N McPherson Church Rd,28303,35.07493412,-78.95347238,$$,19103542590,FALSE,FALSE,FALSE,FALSE,FALSE,FALSE,FALSE,FALSE,FALSE,FALSE,FALSE,FALSE,TRUE,FALSE,FALSE,FALSE,FALSE,TRUE,FALSE,FALSE
tasty-ii-chinese-restaurants-jacksonville,tasty ii chinese restaurants,FALSE,1.5,11,2119 Lejeune Blvd,28546,34.7414513,-77.3667908,$,19103559922,FALSE,FALSE,FALSE,FALSE,FALSE,FALSE,FALSE,FALSE,FALSE,TRUE,FALSE,FALSE,FALSE,FALSE,FALSE,FALSE,FALSE,FALSE,FALSE,FALSE
fireside-restaurant-and-catering-fayetteville,fireside restaurant and catering,FALSE,4.5,15,2637B Bragg Blvd,28303,35.07242,-78.92482,$,19104943287,FALSE,TRUE,FALSE,TRUE,FALSE,FALSE,FALSE,TRUE,FALSE,FALSE,FALSE,FALSE,FALSE,FALSE,FALSE,FALSE,FALSE,FALSE,FALSE,FALSE
affordable-plumbing-spring-lake,affordable plumbing,FALSE,4,1,,28390,35.168123,-78.970429,"NA",19104976331,FALSE,FALSE,FALSE,FALSE,FALSE,FALSE,FALSE,FALSE,FALSE,FALSE,FALSE,FALSE,FALSE,FALSE,FALSE,FALSE,FALSE,FALSE,FALSE,FALSE
memphis-barbecue-fayetteville,memphis barbecue,FALSE,3.5,108,1498 Skibo Rd,28303,35.08285064,-78.95586028,$$,19105683228,FALSE,FALSE,FALSE,FALSE,FALSE,FALSE,FALSE,FALSE,FALSE,FALSE,FALSE,FALSE,FALSE,FALSE,FALSE,FALSE,FALSE,TRUE,FALSE,FALSE
laura-kesler-photography-cameron-3,laura kesler photography,FALSE,5,2,,28326,35.32661,-79.2562,"NA",19105806338,FALSE,FALSE,FALSE,FALSE,FALSE,FALSE,FALSE,FALSE,FALSE,FALSE,FALSE,FALSE,FALSE,FALSE,FALSE,FALSE,FALSE,FALSE,FALSE,FALSE
seaboard-station-restaurant-hamlet,seaboard station restaurant,FALSE,5,5,12 Charlotte St,28345,34.88566,-79.69783,$$,19105821017,FALSE,FALSE,FALSE,FALSE,FALSE,FALSE,FALSE,FALSE,FALSE,FALSE,FALSE,FALSE,FALSE,FALSE,FALSE,FALSE,FALSE,FALSE,FALSE,FALSE
albertos-restaurant-fayetteville,alberto's restaurant,FALSE,4,8,6829 Fillyaw Rd,28303,35.1048,-78.99565,$$,19106768711,FALSE,FALSE,FALSE,FALSE,FALSE,FALSE,FALSE,FALSE,FALSE,FALSE,FALSE,FALSE,FALSE,FALSE,FALSE,FALSE,FALSE,FALSE,FALSE,FALSE
dk-taxi-fayetteville-2,dk- taxi,FALSE,3.5,9,6455 Hidden Lake Lp,28314,35.05091704,-78.95320368,"NA",19107973010,FALSE,FALSE,FALSE,FALSE,FALSE,FALSE,FALSE,FALSE,FALSE,FALSE,FALSE,FALSE,FALSE,FALSE,FALSE,FALSE,FALSE,FALSE,FALSE,FALSE
bojangles-famous-chickenn-biscuits-lillington,bojangles famous chicken'n biscuits,FALSE,2,1,1536 N Main St,27546,35.4186897,-78.8022232,$,19108143700,FALSE,FALSE,FALSE,FALSE,FALSE,FALSE,FALSE,FALSE,FALSE,FALSE,FALSE,FALSE,FALSE,FALSE,FALSE,FALSE,FALSE,FALSE,FALSE,FALSE
shila-korean-restaurant-fayetteville-2,shila korean restaurant,FALSE,3.5,59,404 Santa Fe Dr,28303,35.09001,-78.98151,$$,19108604800,FALSE,FALSE,FALSE,FALSE,FALSE,FALSE,TRUE,FALSE,FALSE,FALSE,FALSE,FALSE,FALSE,FALSE,FALSE,FALSE,FALSE,FALSE,FALSE,FALSE
brueggers-bagels-raleigh-3,bruegger's bagels,FALSE,3.5,14,8211-103 Brier Creek Prkwy,27617,35.909736,-78.7843747,$,19174848262,FALSE,TRUE,FALSE,FALSE,FALSE,FALSE,FALSE,TRUE,FALSE,FALSE,FALSE,FALSE,FALSE,FALSE,FALSE,FALSE,FALSE,FALSE,FALSE,FALSE
catherine-nguyen-photography-raleigh-3,catherine nguyen photography,FALSE,5,25,,27609,35.84206,-78.63387,"NA",19175247297,FALSE,FALSE,FALSE,FALSE,FALSE,FALSE,FALSE,FALSE,FALSE,FALSE,FALSE,FALSE,FALSE,FALSE,FALSE,FALSE,FALSE,FALSE,FALSE,FALSE
samis-pizza-selma,sami's pizza,FALSE,4,45,25 Jr Rd,27576,35.5177759,-78.28685899,$,19192020082,FALSE,FALSE,TRUE,FALSE,FALSE,FALSE,FALSE,FALSE,FALSE,FALSE,FALSE,FALSE,FALSE,FALSE,FALSE,FALSE,FALSE,FALSE,FALSE,FALSE
gonza-tacos-y-tequila-wake-forest,gonza tacos y tequila,FALSE,4,98,1851-1889 S Main St,27587,35.9525325,-78.5275968,$$,19192052500,FALSE,FALSE,FALSE,FALSE,FALSE,TRUE,FALSE,FALSE,FALSE,FALSE,FALSE,FALSE,FALSE,FALSE,TRUE,FALSE,FALSE,FALSE,FALSE,FALSE
gigis-cupcakes-of-brier-creek-raleigh-2,gigi's cupcakes of brier creek,FALSE,3.5,77,8521 Brier Creek Parkway,27617,35.9055578,-78.7858534,$$,19192064002,FALSE,FALSE,FALSE,FALSE,FALSE,FALSE,FALSE,FALSE,FALSE,FALSE,FALSE,FALSE,FALSE,FALSE,FALSE,FALSE,FALSE,FALSE,TRUE,FALSE
capital-cabaret-morrisville,capital cabaret,FALSE,3,18,6713 Mount Herman Rd,27560,35.90305,-78.77143,$$,19192064040,FALSE,FALSE,FALSE,FALSE,FALSE,FALSE,FALSE,FALSE,FALSE,FALSE,FALSE,FALSE,FALSE,FALSE,FALSE,FALSE,FALSE,FALSE,FALSE,FALSE
bocci-durham,bocci,FALSE,3.5,124,5850 Fayetteville Rd,27713,35.92009016,-78.92989404,$$,19192064067,FALSE,FALSE,FALSE,FALSE,FALSE,FALSE,FALSE,FALSE,FALSE,FALSE,TRUE,FALSE,FALSE,FALSE,FALSE,FALSE,FALSE,FALSE,FALSE,FALSE
chick-fil-a-durham-6,chick-fil-a,FALSE,4.5,21,7836 Leonardo Dr,27713,35.901544,-78.957799,$,19192064330,TRUE,FALSE,FALSE,FALSE,FALSE,FALSE,FALSE,FALSE,FALSE,FALSE,FALSE,FALSE,FALSE,FALSE,FALSE,FALSE,FALSE,FALSE,FALSE,FALSE
buffalo-wild-wings-durham,buffalo wild wings,FALSE,2.5,99,6709 Fayetteville Road,27713,35.9056206,-78.9372025,$$,19192064497,FALSE,FALSE,FALSE,TRUE,FALSE,FALSE,FALSE,FALSE,FALSE,FALSE,FALSE,FALSE,TRUE,FALSE,FALSE,FALSE,FALSE,FALSE,FALSE,FALSE
sheetz-benson,sheetz,FALSE,5,5,13433 NC Hwy 210,27504,35.51609747,-78.57852354,"NA",19192071440,FALSE,FALSE,FALSE,FALSE,FALSE,FALSE,FALSE,FALSE,FALSE,FALSE,FALSE,FALSE,FALSE,FALSE,FALSE,FALSE,FALSE,FALSE,FALSE,FALSE
southern-peak-brewery-apex,southern peak brewery,FALSE,3.5,12,950 Windy Rd,27502,35.7463,-78.84426,$,19192084515,FALSE,FALSE,FALSE,FALSE,FALSE,FALSE,FALSE,FALSE,FALSE,FALSE,FALSE,FALSE,FALSE,FALSE,FALSE,FALSE,FALSE,FALSE,FALSE,FALSE
bojangles-benson,bojangles,FALSE,3,4,12355 Nc Hwy 210,27504,35.5164452,-78.5624924,$,19192090322,FALSE,FALSE,FALSE,FALSE,FALSE,FALSE,FALSE,FALSE,FALSE,FALSE,FALSE,FALSE,FALSE,FALSE,FALSE,FALSE,FALSE,FALSE,FALSE,FALSE
the-fret-king-cary,the fret king,FALSE,5,3,101-D Woodwinds Indistrial Ct,27511,35.7614288,-78.8206863,"NA",19192102410,FALSE,FALSE,FALSE,FALSE,FALSE,FALSE,FALSE,FALSE,FALSE,FALSE,FALSE,FALSE,FALSE,FALSE,FALSE,FALSE,FALSE,FALSE,FALSE,FALSE
the-pleasant-bee-raleigh,the pleasant bee,FALSE,4.5,2,3116 Hillsborough St,27607,35.7904138,-78.6783412,$$,19192103755,FALSE,FALSE,FALSE,FALSE,FALSE,FALSE,FALSE,FALSE,FALSE,FALSE,FALSE,FALSE,FALSE,FALSE,FALSE,FALSE,FALSE,FALSE,FALSE,FALSE
first-class-clean-raleigh,first class clean,FALSE,5,8,,27606,35.77708,-78.68611,"NA",19192106899,FALSE,FALSE,FALSE,FALSE,FALSE,FALSE,FALSE,FALSE,FALSE,FALSE,FALSE,FALSE,FALSE,FALSE,FALSE,FALSE,FALSE,FALSE,FALSE,FALSE
kfc-raleigh-7,kfc,FALSE,2,5,3408 Poole Road,27610,35.7683,-78.5799,$,19192122504,TRUE,FALSE,FALSE,FALSE,FALSE,FALSE,FALSE,FALSE,FALSE,FALSE,FALSE,FALSE,TRUE,FALSE,FALSE,FALSE,FALSE,FALSE,FALSE,FALSE
sheetz-raleigh,sheetz,FALSE,3.5,6,5200 New Bern Ave,27610,35.79291254,-78.54833956,$,19192122506,FALSE,TRUE,FALSE,FALSE,FALSE,FALSE,FALSE,FALSE,TRUE,FALSE,FALSE,FALSE,FALSE,FALSE,FALSE,FALSE,FALSE,FALSE,FALSE,FALSE
walmart-raleigh-3,walmart,FALSE,2,12,4431 New Bern Ave,27610,35.8004417,-78.5600204,$,19192126442,FALSE,FALSE,FALSE,FALSE,FALSE,FALSE,TRUE,FALSE,FALSE,FALSE,FALSE,FALSE,FALSE,FALSE,FALSE,FALSE,FALSE,FALSE,FALSE,FALSE
kome-asian-cuisine-raleigh,kome asian cuisine,FALSE,3.5,25,4551 New Bern Ave,27610,35.799811,-78.558077,$$,19192126666,FALSE,FALSE,FALSE,FALSE,FALSE,FALSE,FALSE,FALSE,FALSE,TRUE,FALSE,FALSE,FALSE,FALSE,FALSE,FALSE,FALSE,FALSE,FALSE,TRUE
comfort-suites-raleigh-4,comfort suites,FALSE,3,8,1309 Corporation Pkwy,27610,35.79786,-78.569249,$$,19192126900,FALSE,FALSE,FALSE,FALSE,FALSE,FALSE,FALSE,FALSE,FALSE,FALSE,FALSE,FALSE,FALSE,FALSE,FALSE,FALSE,FALSE,FALSE,FALSE,FALSE
dnj-gateway-mortgage-sherry-riano-team-raleigh,dnj gateway mortgage sherry riano team,FALSE,4,3,2235 Gateway Access Point,27607,35.814742,-78.697107,"NA",19192136140,FALSE,FALSE,FALSE,FALSE,FALSE,FALSE,FALSE,FALSE,FALSE,FALSE,FALSE,FALSE,FALSE,FALSE,FALSE,FALSE,FALSE,FALSE,FALSE,FALSE
excel-moving-and-storage-raleigh-5,excel moving & storage,FALSE,3.5,24,2612 Discovery Dr,27616,35.8637833,-78.5935404,"NA",19192136694,FALSE,FALSE,FALSE,FALSE,FALSE,FALSE,FALSE,FALSE,FALSE,FALSE,FALSE,FALSE,FALSE,FALSE,FALSE,FALSE,FALSE,FALSE,FALSE,FALSE
subway-knightdale-3,subway,FALSE,4.5,4,1018 Shoppes At Midway Dr,27545,35.7981949,-78.5046005,$,19192170008,TRUE,TRUE,FALSE,FALSE,FALSE,FALSE,FALSE,FALSE,FALSE,FALSE,FALSE,FALSE,FALSE,FALSE,FALSE,FALSE,FALSE,FALSE,FALSE,FALSE
anets-katch-knightdale,a'nets katch,FALSE,4,41,2009 Village Park Dr,27545,35.7973137,-78.4923553,$,19192170133,FALSE,FALSE,FALSE,FALSE,FALSE,FALSE,FALSE,FALSE,FALSE,FALSE,FALSE,FALSE,FALSE,FALSE,FALSE,FALSE,TRUE,FALSE,FALSE,FALSE
walmart-knightdale-2,walmart,FALSE,4.5,3,7106 Knightdale Blvd,27545,35.7965088,-78.4910965,$,19192170490,FALSE,FALSE,FALSE,FALSE,FALSE,FALSE,TRUE,FALSE,FALSE,FALSE,FALSE,FALSE,FALSE,FALSE,FALSE,FALSE,FALSE,FALSE,FALSE,FALSE
big-als-bbq-catering-raleigh,big al's bbq catering,FALSE,4.5,28,2920 Forestville Rd,27616,35.89418136,-78.50801659,$,19192170653,FALSE,FALSE,FALSE,FALSE,FALSE,FALSE,FALSE,FALSE,FALSE,FALSE,FALSE,FALSE,FALSE,FALSE,FALSE,FALSE,FALSE,FALSE,FALSE,FALSE
new-york-diner-knightdale,new york diner,FALSE,3.5,34,909 McKnight Dr,27545,35.79657,-78.4926,$,19192170838,FALSE,FALSE,FALSE,FALSE,FALSE,FALSE,FALSE,FALSE,FALSE,FALSE,FALSE,FALSE,FALSE,FALSE,FALSE,FALSE,FALSE,FALSE,FALSE,FALSE
cappollas-pizza-and-grill-knightdale,cappolla's pizza & grill,FALSE,2.5,11,7039 Knightdale Blvd,27545,35.7985485,-78.4920237,$,19192171110,FALSE,FALSE,TRUE,FALSE,FALSE,FALSE,FALSE,FALSE,FALSE,FALSE,TRUE,FALSE,FALSE,FALSE,FALSE,FALSE,FALSE,FALSE,FALSE,FALSE
buffalo-wild-wings-knightdale,buffalo wild wings,FALSE,2.5,60,6700 Knightdale Blvd,27545,35.7964399,-78.50464,$$,19192172559,FALSE,FALSE,FALSE,TRUE,FALSE,FALSE,FALSE,FALSE,FALSE,FALSE,FALSE,FALSE,TRUE,FALSE,FALSE,FALSE,FALSE,FALSE,FALSE,FALSE
krispy-kreme-doughnuts-knightdale,krispy kreme doughnuts,FALSE,3,18,6727 Knightdale Blvd,27545,35.7979149,-78.50358119,$,19192173314,FALSE,FALSE,FALSE,FALSE,FALSE,FALSE,FALSE,FALSE,FALSE,FALSE,FALSE,FALSE,FALSE,FALSE,FALSE,FALSE,FALSE,FALSE,FALSE,FALSE
grand-street-pizza-knightdale,grand street pizza,FALSE,4.5,39,909 McKnight Dr,27545,35.79652133,-78.4925833,$,19192173410,FALSE,FALSE,TRUE,FALSE,FALSE,FALSE,FALSE,FALSE,FALSE,FALSE,TRUE,FALSE,FALSE,FALSE,FALSE,FALSE,FALSE,FALSE,FALSE,FALSE
waffle-house-knightdale,waffle house,FALSE,2.5,4,7605 Knightdale Blvd,27545,35.799881,-78.473499,$,19192174112,FALSE,FALSE,FALSE,TRUE,FALSE,FALSE,FALSE,TRUE,FALSE,FALSE,FALSE,FALSE,FALSE,FALSE,FALSE,FALSE,FALSE,FALSE,FALSE,FALSE
china-house-knightdale-2,china house,FALSE,3.5,8,7063 Knightdale Blvd,27545,35.7985802,-78.4906082,$,19192174484,FALSE,FALSE,FALSE,FALSE,FALSE,FALSE,FALSE,FALSE,FALSE,TRUE,FALSE,FALSE,FALSE,FALSE,FALSE,FALSE,FALSE,FALSE,FALSE,FALSE
qdoba-mexican-grill-knightdale,qdoba mexican grill,FALSE,3.5,13,210 Hinton Oaks Blvd,27545,35.7970264,-78.5103946,$,19192174690,FALSE,FALSE,FALSE,FALSE,FALSE,TRUE,FALSE,FALSE,FALSE,FALSE,FALSE,FALSE,FALSE,FALSE,FALSE,FALSE,FALSE,FALSE,FALSE,FALSE
chick-fil-a-knightdale,chick-fil-a,FALSE,4,20,6711 Knightdale Blvd,27545,35.797672,-78.504519,$,19192176981,TRUE,FALSE,FALSE,FALSE,FALSE,FALSE,FALSE,FALSE,FALSE,FALSE,FALSE,FALSE,FALSE,FALSE,FALSE,FALSE,FALSE,FALSE,FALSE,FALSE
lone-star-steakhouse-knightdale,lone star steakhouse,FALSE,3,36,6601 Knightdale Blvd.,27545,35.79658,-78.5094699,$$,19192177070,FALSE,FALSE,FALSE,TRUE,FALSE,FALSE,FALSE,FALSE,FALSE,FALSE,FALSE,FALSE,FALSE,FALSE,FALSE,FALSE,TRUE,FALSE,FALSE,FALSE
toreros-raleigh,toreros,FALSE,3.5,29,3002 Leland Dr,27616,35.89328134,-78.51171255,$$,19192177883,FALSE,FALSE,FALSE,FALSE,FALSE,TRUE,FALSE,FALSE,FALSE,FALSE,FALSE,FALSE,FALSE,FALSE,FALSE,FALSE,FALSE,FALSE,FALSE,FALSE
san-juan-mexican-reataurant-raleigh,san juan mexican reataurant,FALSE,4,31,3501 Forestville Rd,27616,35.88231545,-78.5095328,$,19192177918,FALSE,FALSE,FALSE,FALSE,FALSE,TRUE,FALSE,FALSE,FALSE,FALSE,FALSE,FALSE,FALSE,FALSE,FALSE,FALSE,FALSE,FALSE,FALSE,FALSE
infinite-wellness-inc-knightdale,"infinite wellness, inc",FALSE,5,3,817 N Smithfield Rd,27545,35.7957001,-78.4878922,"NA",19192178188,FALSE,FALSE,FALSE,FALSE,FALSE,FALSE,FALSE,FALSE,FALSE,FALSE,FALSE,FALSE,FALSE,FALSE,FALSE,FALSE,FALSE,FALSE,FALSE,FALSE
fuji-china-knightdale,fuji china,FALSE,2.5,15,4001 Wide Waters Pkwy,27545,35.79519,-78.50523,$,19192178568,FALSE,FALSE,FALSE,FALSE,FALSE,FALSE,FALSE,FALSE,FALSE,TRUE,FALSE,FALSE,FALSE,FALSE,FALSE,FALSE,FALSE,FALSE,FALSE,FALSE
hibachi-k-express-knightdale,hibachi k express,FALSE,4,28,4001 Wide Waters Pkwy,27545,35.79494092,-78.50565391,$$,19192178875,FALSE,FALSE,FALSE,FALSE,FALSE,FALSE,FALSE,FALSE,FALSE,FALSE,FALSE,FALSE,FALSE,FALSE,FALSE,FALSE,FALSE,FALSE,FALSE,FALSE
lowes-foods-knightdale,lowes foods,FALSE,3.5,17,3001 Widewaters Pkwy,27545,35.79501749,-78.50509191,$$,19192179184,FALSE,FALSE,FALSE,FALSE,FALSE,FALSE,TRUE,FALSE,FALSE,FALSE,FALSE,FALSE,FALSE,FALSE,FALSE,FALSE,FALSE,FALSE,FALSE,FALSE
baskin-robbins-knightdale,baskin robbins,FALSE,3,4,7137 Knightdale Blvd,27545,35.79885945,-78.489856,$$,19192179603,FALSE,FALSE,FALSE,FALSE,FALSE,FALSE,FALSE,FALSE,FALSE,FALSE,FALSE,FALSE,FALSE,FALSE,FALSE,FALSE,FALSE,FALSE,FALSE,FALSE
arbys-knightdale,arby's,FALSE,2,6,6721 Knightdale Blvd,27545,35.7974727,-78.5040502,"NA",19192179680,TRUE,TRUE,FALSE,FALSE,FALSE,FALSE,FALSE,FALSE,FALSE,FALSE,FALSE,FALSE,FALSE,FALSE,FALSE,FALSE,FALSE,FALSE,FALSE,FALSE
kiko-japan-express-knightdale,kiko japan express,FALSE,3.5,13,1018 Shoppes At Midway Dr Ste C,27545,35.7982124,-78.504902,$,19192179788,FALSE,FALSE,FALSE,FALSE,FALSE,FALSE,FALSE,FALSE,FALSE,FALSE,FALSE,FALSE,FALSE,FALSE,FALSE,FALSE,FALSE,FALSE,FALSE,FALSE
daves-roof-repair-cary,dave's roof repair,FALSE,4,8,906 Vickie Dr,27511,35.7660408,-78.7611465,"NA",19192192474,FALSE,FALSE,FALSE,FALSE,FALSE,FALSE,FALSE,FALSE,FALSE,FALSE,FALSE,FALSE,FALSE,FALSE,FALSE,FALSE,FALSE,FALSE,FALSE,FALSE
costco-wholesale-durham,costco wholesale,FALSE,3.5,38,1510 N Pointe Dr,27705,36.02919,-78.9145,$$,19192202743,FALSE,FALSE,FALSE,FALSE,FALSE,FALSE,FALSE,FALSE,FALSE,FALSE,FALSE,FALSE,FALSE,FALSE,FALSE,FALSE,FALSE,FALSE,FALSE,FALSE
museum-afterhours-cocktails-and-cosmonauts-durham,museum afterhours: cocktails & cosmonauts,FALSE,5,4,433 W Murray Ave,27704,36.0293105,-78.8992776,"NA",19192205429,FALSE,FALSE,FALSE,FALSE,FALSE,FALSE,FALSE,FALSE,FALSE,FALSE,FALSE,FALSE,FALSE,FALSE,FALSE,FALSE,FALSE,FALSE,FALSE,FALSE
dehavens-transfer-and-storage-durham-3,dehaven's transfer & storage,FALSE,1.5,8,1900 N Pointe Dr,27705,36.02810755,-78.91882719,"NA",19192205441,FALSE,FALSE,FALSE,FALSE,FALSE,FALSE,FALSE,FALSE,FALSE,FALSE,FALSE,FALSE,FALSE,FALSE,FALSE,FALSE,FALSE,FALSE,FALSE,FALSE
spicy-green-gourmet-durham,spicy green gourmet,FALSE,4.5,41,2945 S Miami Blvd,27703,35.9239388,-78.8438797,$,19192206040,FALSE,TRUE,FALSE,FALSE,FALSE,FALSE,FALSE,FALSE,FALSE,FALSE,FALSE,TRUE,FALSE,FALSE,FALSE,FALSE,FALSE,FALSE,FALSE,FALSE
alpaca-peruvian-charcoal-chicken-durham-2,alpaca peruvian charcoal chicken,FALSE,4.5,172,302 Davidson Ave,27701,36.018238,-78.888425,$,19192209028,FALSE,FALSE,FALSE,FALSE,FALSE,FALSE,FALSE,FALSE,FALSE,FALSE,FALSE,FALSE,FALSE,FALSE,FALSE,FALSE,FALSE,FALSE,FALSE,FALSE
la-superior-carniceria-durham-2,la superior carniceria,FALSE,4.5,88,3325 N Roxboro St,27704,36.03394334,-78.89196075,$,19192209884,FALSE,FALSE,FALSE,FALSE,FALSE,TRUE,FALSE,FALSE,FALSE,FALSE,FALSE,FALSE,FALSE,FALSE,FALSE,FALSE,FALSE,FALSE,FALSE,FALSE
rye-bar-and-southern-kitchen-raleigh,rye bar & southern kitchen,FALSE,3.5,109,500 Fayetteville St,27601,35.7735901,-78.6399689,$$,19192273370,FALSE,FALSE,FALSE,FALSE,FALSE,FALSE,FALSE,FALSE,FALSE,FALSE,FALSE,TRUE,FALSE,FALSE,FALSE,FALSE,TRUE,FALSE,FALSE,FALSE
pei-wei-raleigh-2,pei wei,FALSE,3.5,50,4408 Falls of Neuse Rd.,27609,35.84250371,-78.61209178,$,19192273810,FALSE,FALSE,FALSE,FALSE,FALSE,FALSE,FALSE,FALSE,FALSE,TRUE,FALSE,FALSE,FALSE,FALSE,FALSE,FALSE,FALSE,FALSE,FALSE,FALSE
nile-cafe-mediterranean-food-cary,nile cafe mediterranean food,FALSE,5,6,8204 Tryon Woods Dr,27518,35.7469162,-78.7417218,$$,19192294664,FALSE,FALSE,FALSE,FALSE,FALSE,FALSE,FALSE,FALSE,FALSE,FALSE,FALSE,FALSE,FALSE,FALSE,FALSE,FALSE,FALSE,FALSE,FALSE,FALSE
jersey-mikes-subs-raleigh-14,jersey mike's subs,FALSE,4,17,4121-101 New Bern Avenue,27610,35.8011398,-78.5652618,$,19192310070,TRUE,TRUE,FALSE,FALSE,FALSE,FALSE,FALSE,FALSE,FALSE,FALSE,FALSE,FALSE,FALSE,TRUE,FALSE,FALSE,FALSE,FALSE,FALSE,FALSE
waffle-house-raleigh-2,waffle house,FALSE,1.5,18,3703 New Bern Ave,27610,35.79821,-78.57692,$,19192311292,FALSE,FALSE,FALSE,TRUE,FALSE,FALSE,FALSE,TRUE,FALSE,FALSE,FALSE,FALSE,FALSE,FALSE,FALSE,TRUE,FALSE,FALSE,FALSE,FALSE
hibachi-88-raleigh,hibachi 88,FALSE,4,20,3416-100 Poole Rd,27610,35.7672386,-78.5795288,$,19192311688,FALSE,FALSE,FALSE,FALSE,FALSE,FALSE,FALSE,FALSE,FALSE,FALSE,FALSE,FALSE,FALSE,FALSE,FALSE,FALSE,FALSE,FALSE,FALSE,FALSE
quality-inn-raleigh,quality inn,FALSE,2,3,4716 New Bern Ave,27610,35.797157,-78.557081,$$,19192312727,FALSE,FALSE,FALSE,FALSE,FALSE,FALSE,FALSE,FALSE,FALSE,FALSE,FALSE,FALSE,FALSE,FALSE,FALSE,FALSE,FALSE,FALSE,FALSE,FALSE
mcdonalds-inside-walmart-raleigh,mcdonalds inside walmart,FALSE,1,1,4431 New Bern Ave,27610,35.8004417,-78.5600204,"NA",19192313242,FALSE,FALSE,FALSE,FALSE,FALSE,FALSE,FALSE,FALSE,FALSE,FALSE,FALSE,FALSE,FALSE,FALSE,FALSE,FALSE,FALSE,FALSE,FALSE,FALSE
starbucks-raleigh-6,starbucks,FALSE,3.5,22,4421 New Bern Ave,27610,35.7989197,-78.5607529,$$,19192313271,FALSE,FALSE,FALSE,FALSE,FALSE,FALSE,FALSE,FALSE,TRUE,FALSE,FALSE,FALSE,FALSE,FALSE,FALSE,FALSE,FALSE,FALSE,FALSE,FALSE
starbar-raleigh,starbar,FALSE,3,22,1731 Trawick Rd,27604,35.8006897,-78.578331,$$,19192313535,FALSE,FALSE,FALSE,FALSE,FALSE,FALSE,FALSE,FALSE,FALSE,FALSE,FALSE,FALSE,FALSE,FALSE,FALSE,FALSE,FALSE,FALSE,FALSE,FALSE
dominos-pizza-raleigh-18,domino's pizza,FALSE,3.5,8,3677 New Bern Ave,27610,35.7974815,-78.5781631,$$,19192316007,FALSE,TRUE,TRUE,FALSE,FALSE,FALSE,FALSE,FALSE,FALSE,FALSE,FALSE,FALSE,TRUE,FALSE,FALSE,FALSE,FALSE,FALSE,FALSE,FALSE
food-lion-raleigh-9,food lion,FALSE,2,6,3416 Poole Rd Ste 120,27610,35.7672386,-78.5795288,$$,19192316202,FALSE,FALSE,FALSE,FALSE,FALSE,FALSE,TRUE,FALSE,FALSE,FALSE,FALSE,FALSE,FALSE,FALSE,FALSE,FALSE,FALSE,FALSE,FALSE,FALSE
mcdonalds-raleigh-7,mcdonald's,FALSE,3,5,1700 Trawick Rd,27604,35.7990799,-78.5771332,$,19192316205,TRUE,FALSE,FALSE,FALSE,TRUE,FALSE,FALSE,FALSE,FALSE,FALSE,FALSE,FALSE,FALSE,FALSE,FALSE,FALSE,FALSE,FALSE,FALSE,FALSE
subway-raleigh-4,subway,FALSE,2.5,4,Walnut Creek Shopping Center,27610,35.76724,-78.57953,$,19192316223,TRUE,TRUE,FALSE,FALSE,FALSE,FALSE,FALSE,FALSE,FALSE,FALSE,FALSE,FALSE,FALSE,FALSE,FALSE,FALSE,FALSE,FALSE,FALSE,FALSE
burger-king-raleigh-11,burger king,FALSE,5,1,3955 New Bern Ave,27610,35.7995911,-78.5696335,"NA",19192316415,FALSE,FALSE,FALSE,FALSE,TRUE,FALSE,FALSE,FALSE,FALSE,FALSE,FALSE,FALSE,FALSE,FALSE,FALSE,FALSE,FALSE,FALSE,FALSE,FALSE
walgreens-raleigh-7,walgreens,FALSE,3,4,4408 New Bern Ave,27610,35.7978783,-78.5621185,"NA",19192316419,FALSE,FALSE,FALSE,FALSE,FALSE,FALSE,FALSE,FALSE,FALSE,FALSE,FALSE,FALSE,FALSE,FALSE,FALSE,FALSE,FALSE,FALSE,FALSE,FALSE
food-lion-raleigh-21,food lion,FALSE,3,1,3685 New Bern Ave,27610,35.7975121,-78.5781021,"NA",19192317294,FALSE,TRUE,FALSE,FALSE,FALSE,FALSE,FALSE,FALSE,FALSE,FALSE,FALSE,FALSE,FALSE,TRUE,FALSE,FALSE,FALSE,FALSE,FALSE,FALSE
jerk-masters-raleigh,jerk masters,FALSE,3.5,23,1909 Poole Rd,27610,35.7766647,-78.6107635,$,19192317697,FALSE,FALSE,FALSE,FALSE,FALSE,FALSE,FALSE,FALSE,FALSE,FALSE,FALSE,FALSE,FALSE,FALSE,FALSE,FALSE,FALSE,FALSE,FALSE,FALSE
marshalls-locksmith-service-raleigh,marshall's locksmith service,FALSE,4.5,8,4205 Poole Rd,27610,35.76893,-78.56523,"NA",19192318017,FALSE,FALSE,FALSE,FALSE,FALSE,FALSE,FALSE,FALSE,FALSE,FALSE,FALSE,FALSE,FALSE,FALSE,FALSE,FALSE,FALSE,FALSE,FALSE,FALSE
han-dee-hugos-number-64-raleigh,han-dee hugo's number 64,FALSE,4,1,800 S New Hope Rd,27610,35.7652206,-78.5599594,"NA",19192318055,FALSE,FALSE,FALSE,FALSE,FALSE,FALSE,FALSE,FALSE,FALSE,FALSE,FALSE,FALSE,FALSE,FALSE,FALSE,FALSE,FALSE,FALSE,FALSE,FALSE
circle-k-raleigh-8,circle k,FALSE,3,1,3948 New Bern Ave,27610,35.79853,-78.56881,$,19192318060,FALSE,FALSE,FALSE,FALSE,FALSE,FALSE,FALSE,FALSE,FALSE,FALSE,FALSE,FALSE,FALSE,FALSE,FALSE,FALSE,FALSE,FALSE,FALSE,FALSE
franks-pizza-and-italian-restaurant-raleigh,frank's pizza & italian restaurant,FALSE,4.5,65,2030 New Bern Ave,27610,35.7794762,-78.606987,$$,19192318990,FALSE,FALSE,TRUE,FALSE,FALSE,FALSE,FALSE,FALSE,FALSE,FALSE,TRUE,FALSE,FALSE,FALSE,FALSE,FALSE,FALSE,FALSE,FALSE,FALSE
bojangles-raleigh-9,bojangles,FALSE,3.5,13,4621 New Bern Ave,27610,35.7989006,-78.557869,$,19192319028,FALSE,FALSE,FALSE,FALSE,FALSE,FALSE,FALSE,FALSE,FALSE,FALSE,FALSE,FALSE,TRUE,FALSE,FALSE,FALSE,FALSE,FALSE,FALSE,FALSE
k-and-w-cafeteria-raleigh-4,k & w cafeteria,FALSE,3.5,7,3620 Bastion Ln,27604,35.798439,-78.5827484,$,19192319242,FALSE,FALSE,FALSE,TRUE,FALSE,FALSE,FALSE,FALSE,FALSE,FALSE,FALSE,FALSE,FALSE,FALSE,FALSE,FALSE,FALSE,FALSE,FALSE,FALSE
a-and-c-supermarket-raleigh,a & c supermarket,FALSE,3.5,26,3210 S Wilmington St,27603,35.73682,-78.65149,$,19192322288,FALSE,FALSE,FALSE,FALSE,FALSE,FALSE,TRUE,FALSE,FALSE,TRUE,FALSE,FALSE,FALSE,FALSE,FALSE,FALSE,FALSE,FALSE,FALSE,FALSE
akari-express-raleigh,akari express,FALSE,3.5,23,2109 Avent Ferry Rd,27606,35.7803824,-78.6755959,$,19192325380,FALSE,FALSE,FALSE,FALSE,FALSE,FALSE,FALSE,FALSE,FALSE,FALSE,FALSE,FALSE,FALSE,FALSE,FALSE,FALSE,FALSE,FALSE,FALSE,FALSE
jersey-mikes-subs-cary-4,jersey mike's subs,FALSE,3.5,5,280 Meeting Street,27518,35.7566599,-78.74479,$$,19192330036,TRUE,TRUE,FALSE,FALSE,FALSE,FALSE,FALSE,FALSE,FALSE,FALSE,FALSE,FALSE,FALSE,TRUE,FALSE,FALSE,FALSE,FALSE,FALSE,FALSE
mcdonalds-cary,mcdonald's,FALSE,2,10,1831 Walnut St,27511,35.7593543,-78.7425144,$,19192330080,TRUE,FALSE,FALSE,FALSE,TRUE,FALSE,FALSE,FALSE,FALSE,FALSE,FALSE,FALSE,FALSE,FALSE,FALSE,FALSE,FALSE,FALSE,FALSE,FALSE
coffee-and-crepes-cary,coffee & crepes,FALSE,4,201,315 Crossroads Blvd,27518,35.7607824,-78.7384466,$,19192330288,FALSE,FALSE,FALSE,FALSE,FALSE,FALSE,FALSE,FALSE,FALSE,FALSE,FALSE,FALSE,FALSE,FALSE,FALSE,FALSE,FALSE,FALSE,FALSE,FALSE
lees-tailors-raleigh-3,lee's tailors,FALSE,4.5,42,5535 Western Blvd,27606,35.7850456,-78.7212677,"NA",19192330708,FALSE,FALSE,FALSE,FALSE,FALSE,FALSE,FALSE,FALSE,FALSE,FALSE,FALSE,FALSE,FALSE,FALSE,FALSE,FALSE,FALSE,FALSE,FALSE,FALSE
baba-ghannouj-mediterranean-bistro-cary-2,baba ghannouj mediterranean bistro,FALSE,4,126,2468 Walnut St,27518,35.7517304,-78.7414223,$,19192330907,FALSE,FALSE,FALSE,FALSE,FALSE,FALSE,FALSE,FALSE,FALSE,FALSE,FALSE,FALSE,FALSE,FALSE,FALSE,FALSE,FALSE,FALSE,FALSE,FALSE
crescent-arbors-apartments-cary,crescent arbors apartments,FALSE,1.5,5,100 Crescent Arbor Ln,27511,35.7317002,-78.7790061,"NA",19192331337,FALSE,FALSE,FALSE,FALSE,FALSE,FALSE,FALSE,FALSE,FALSE,FALSE,FALSE,FALSE,FALSE,FALSE,FALSE,FALSE,FALSE,FALSE,FALSE,FALSE
best-steak-and-sub-cary,best steak and sub,FALSE,4,33,323 Crossroads Blvd,27518,35.7610468,-78.7377725,$,19192331388,FALSE,TRUE,FALSE,FALSE,FALSE,FALSE,FALSE,FALSE,FALSE,FALSE,FALSE,FALSE,FALSE,FALSE,FALSE,FALSE,FALSE,FALSE,FALSE,FALSE
remington-grill-burgers-and-bbq-cary,remington grill burgers & bbq,FALSE,3,49,208 Crossroads Blvd,27518,35.76073884,-78.74037902,$,19192331494,FALSE,TRUE,FALSE,FALSE,TRUE,FALSE,FALSE,FALSE,FALSE,FALSE,FALSE,FALSE,FALSE,FALSE,FALSE,FALSE,FALSE,TRUE,FALSE,FALSE
lucky-32-southern-kitchen-cary,lucky 32 southern kitchen,FALSE,4,410,7307 Tryon Rd,27511,35.7365208,-78.78523421,$$,19192331632,FALSE,FALSE,FALSE,FALSE,FALSE,FALSE,FALSE,FALSE,FALSE,FALSE,FALSE,TRUE,FALSE,FALSE,FALSE,FALSE,FALSE,FALSE,FALSE,FALSE
chick-fil-a-cary-3,chick-fil-a,FALSE,4,21,1815 Walnut St,27518,35.76000657,-78.74237336,$,19192331691,TRUE,FALSE,FALSE,FALSE,FALSE,FALSE,FALSE,FALSE,FALSE,FALSE,FALSE,FALSE,FALSE,FALSE,FALSE,FALSE,FALSE,FALSE,FALSE,FALSE
hampton-inn-and-suites-raleigh-cary-i-40-raleigh,hampton inn & suites raleigh/cary i-40,FALSE,4.5,20,111 Hampton Woods Ln,27607,35.7929055,-78.7489098,$$,19192331798,FALSE,FALSE,FALSE,FALSE,FALSE,FALSE,FALSE,FALSE,FALSE,FALSE,FALSE,FALSE,FALSE,FALSE,FALSE,FALSE,FALSE,FALSE,FALSE,FALSE
lake-johnson-park-raleigh,lake johnson park,FALSE,4.5,71,4601 Avent Ferry Rd,27606,35.7628072,-78.7142491,"NA",19192332121,FALSE,FALSE,FALSE,FALSE,FALSE,FALSE,FALSE,FALSE,FALSE,FALSE,FALSE,FALSE,FALSE,FALSE,FALSE,FALSE,FALSE,FALSE,FALSE,FALSE
hyatt-place-raleigh-west-raleigh,hyatt place raleigh west,FALSE,4,28,710 Corporate Ctr Dr,27607,35.79191,-78.73806,$$,19192332205,FALSE,FALSE,FALSE,FALSE,FALSE,FALSE,FALSE,FALSE,FALSE,FALSE,FALSE,FALSE,FALSE,FALSE,FALSE,FALSE,FALSE,FALSE,FALSE,FALSE
panera-bread-cary-2,panera bread,FALSE,3,47,2234 Walnut St,27511,35.75549474,-78.74251071,$,19192332221,FALSE,TRUE,FALSE,FALSE,FALSE,FALSE,FALSE,FALSE,FALSE,FALSE,FALSE,FALSE,FALSE,FALSE,FALSE,TRUE,FALSE,FALSE,FALSE,FALSE
western-wake-medical-center-cary,western wake medical center,FALSE,2.5,4,1900 Kildaire Farm Rd,27511,35.74074,-78.78171,"NA",19192332300,FALSE,FALSE,FALSE,FALSE,FALSE,FALSE,FALSE,FALSE,FALSE,FALSE,FALSE,FALSE,FALSE,FALSE,FALSE,FALSE,FALSE,FALSE,FALSE,FALSE
harris-teeter-cary-3,harris teeter,FALSE,3,21,1151 Tryon Village Dr,27518,35.7466516,-78.7442867,$$,19192333476,FALSE,FALSE,FALSE,FALSE,FALSE,FALSE,TRUE,FALSE,FALSE,FALSE,FALSE,FALSE,FALSE,FALSE,FALSE,FALSE,FALSE,FALSE,FALSE,FALSE
great-clips-cary-2,great clips,FALSE,3.5,8,2044 Kildaire Farm Rd,27518,35.7368965,-78.779892,$$,19192333579,FALSE,FALSE,FALSE,FALSE,FALSE,FALSE,FALSE,FALSE,FALSE,FALSE,FALSE,FALSE,FALSE,FALSE,FALSE,FALSE,FALSE,FALSE,FALSE,FALSE
pro-movers-raleigh-3,pro movers,FALSE,3,2,6445 Northwyck Pl,27609,35.86935,-78.6144,"NA",19192333993,FALSE,FALSE,FALSE,FALSE,FALSE,FALSE,FALSE,FALSE,FALSE,FALSE,FALSE,FALSE,FALSE,FALSE,FALSE,FALSE,FALSE,FALSE,FALSE,FALSE
the-goat-raleigh,the goat,FALSE,3.5,23,5111 Western Blvd,27606,35.7859917,-78.7118378,$,19192334143,FALSE,FALSE,FALSE,FALSE,FALSE,FALSE,FALSE,FALSE,FALSE,FALSE,FALSE,FALSE,FALSE,FALSE,FALSE,FALSE,FALSE,FALSE,FALSE,FALSE
mcdonalds-raleigh-27,mcdonald's,FALSE,1.5,10,601 Corporate Ctr Dr,27607,35.79003908,-78.74084158,$,19192334144,TRUE,FALSE,FALSE,FALSE,TRUE,FALSE,FALSE,FALSE,FALSE,FALSE,FALSE,FALSE,FALSE,FALSE,FALSE,FALSE,FALSE,FALSE,FALSE,FALSE
gigis-cupcakes-of-cary-cary,gigi's cupcakes of cary,FALSE,3,45,302 Colonades Way,27518,35.7385499,-78.77758,$$$,19192334154,FALSE,FALSE,FALSE,FALSE,FALSE,FALSE,FALSE,FALSE,FALSE,FALSE,FALSE,FALSE,FALSE,FALSE,FALSE,FALSE,FALSE,FALSE,TRUE,FALSE
target-cary,target,FALSE,3.5,30,2021 Walnut St,27518,35.7577799,-78.7386,$$,19192334451,FALSE,FALSE,FALSE,FALSE,FALSE,FALSE,FALSE,FALSE,FALSE,FALSE,FALSE,FALSE,FALSE,FALSE,FALSE,FALSE,FALSE,FALSE,FALSE,FALSE
starbucks-cary-7,starbucks,FALSE,3.5,30,204 Crossroads Blvd,27511,35.76055609,-78.74111895,$,19192334905,FALSE,FALSE,FALSE,FALSE,FALSE,FALSE,FALSE,FALSE,TRUE,FALSE,FALSE,FALSE,FALSE,FALSE,FALSE,FALSE,FALSE,FALSE,FALSE,FALSE
precision-tune-auto-care-cary-2,precision tune auto care,FALSE,2.5,13,421 Colonades Way,27518,35.74078,-78.77647,"NA",19192335302,FALSE,FALSE,FALSE,FALSE,FALSE,FALSE,FALSE,FALSE,FALSE,FALSE,FALSE,FALSE,FALSE,FALSE,FALSE,FALSE,FALSE,FALSE,FALSE,FALSE
dickeys-barbecue-pit-cary,dickey's barbecue pit,FALSE,3,72,200 Crossroads Blvd,27518,35.76023133,-78.74144106,$$,19192335801,FALSE,FALSE,FALSE,FALSE,FALSE,FALSE,FALSE,FALSE,FALSE,FALSE,FALSE,FALSE,FALSE,FALSE,FALSE,FALSE,FALSE,TRUE,FALSE,FALSE
party-city-cary,party city,FALSE,2.5,7,203 Crossroads Blvd,27511,35.76231736,-78.74071014,$,19192336777,FALSE,FALSE,FALSE,FALSE,FALSE,FALSE,FALSE,FALSE,FALSE,FALSE,FALSE,FALSE,FALSE,FALSE,FALSE,FALSE,FALSE,FALSE,FALSE,FALSE
bob-evans-restaurant-cary,bob evans restaurant,FALSE,3,21,2001 Walnut St,27511,35.7588,-78.74142,$,19192336860,FALSE,FALSE,FALSE,TRUE,FALSE,FALSE,FALSE,FALSE,FALSE,FALSE,FALSE,FALSE,FALSE,FALSE,FALSE,FALSE,FALSE,FALSE,FALSE,FALSE
jasons-deli-cary,jason's deli,FALSE,3.5,58,210 Crossroads Blvd,27518,35.7606964,-78.7391231,$,19192336901,FALSE,TRUE,FALSE,FALSE,FALSE,FALSE,FALSE,FALSE,FALSE,FALSE,FALSE,FALSE,FALSE,TRUE,FALSE,TRUE,FALSE,FALSE,FALSE,FALSE
colonial-grand-at-trinity-commons-raleigh,colonial grand at trinity commons,FALSE,1,4,1140 Trinity Pine Ln,27607,35.7953897,-78.730728,"NA",19192337475,FALSE,FALSE,FALSE,FALSE,FALSE,FALSE,FALSE,FALSE,FALSE,FALSE,FALSE,FALSE,FALSE,FALSE,FALSE,FALSE,FALSE,FALSE,FALSE,FALSE
chipotle-mexican-grill-cary-2,chipotle mexican grill,FALSE,3.5,12,204 Crossroads Blvd,27518,35.7596885,-78.74131765,$,19192338242,TRUE,FALSE,FALSE,FALSE,FALSE,TRUE,FALSE,FALSE,FALSE,FALSE,FALSE,FALSE,FALSE,FALSE,FALSE,FALSE,FALSE,FALSE,FALSE,FALSE
hardees-hamburgers-raleigh-2,hardee's hamburgers,FALSE,2.5,7,2304 Gorman St,27606,35.7673988,-78.6946106,$,19192338287,TRUE,FALSE,FALSE,FALSE,FALSE,FALSE,FALSE,FALSE,FALSE,FALSE,FALSE,FALSE,FALSE,FALSE,FALSE,FALSE,FALSE,FALSE,FALSE,FALSE
wells-fargo-bank-raleigh-51,wells fargo bank,FALSE,2.5,4,4530 Western Blvd,27606,35.7863083,-78.7026901,"NA",19192338474,FALSE,FALSE,FALSE,FALSE,FALSE,FALSE,FALSE,FALSE,FALSE,FALSE,FALSE,FALSE,FALSE,FALSE,FALSE,FALSE,FALSE,FALSE,FALSE,FALSE
eye-care-center-cary-3,eye care center,FALSE,3.5,5,229 Crossroads Blvd,27518,35.7611719,-78.7402854,"NA",19192338500,FALSE,FALSE,FALSE,FALSE,FALSE,FALSE,FALSE,FALSE,FALSE,FALSE,FALSE,FALSE,FALSE,FALSE,FALSE,FALSE,FALSE,FALSE,FALSE,FALSE
pearl-chinese-restaurant-raleigh,pearl chinese restaurant,FALSE,3.5,74,3215 Avent Ferry Rd,27606,35.76682628,-78.69498809,$,19192338776,FALSE,FALSE,FALSE,FALSE,FALSE,FALSE,FALSE,FALSE,FALSE,TRUE,FALSE,FALSE,FALSE,FALSE,FALSE,FALSE,TRUE,FALSE,FALSE,FALSE
tgi-fridays-cary-3,tgi fridays,FALSE,2.5,29,2002 Kildaire Farm Rd,27518,35.73836,-78.78074,$$,19192338883,FALSE,FALSE,FALSE,TRUE,FALSE,FALSE,FALSE,FALSE,FALSE,FALSE,FALSE,FALSE,FALSE,FALSE,TRUE,FALSE,FALSE,FALSE,FALSE,FALSE
teddys-new-yorker-pizza-raleigh,teddy's new yorker pizza,FALSE,2.5,21,5563 Western Blvd,27606,35.7841187,-78.7205124,$$,19192339144,FALSE,FALSE,TRUE,FALSE,FALSE,FALSE,FALSE,FALSE,FALSE,FALSE,FALSE,FALSE,FALSE,FALSE,FALSE,FALSE,FALSE,FALSE,FALSE,FALSE
harris-teeter-cary,harris teeter,FALSE,4,21,2080 Kildaire Farm Rd,27511,35.7352417,-78.7804748,$$,19192339483,FALSE,FALSE,FALSE,FALSE,FALSE,FALSE,TRUE,FALSE,FALSE,FALSE,FALSE,FALSE,FALSE,FALSE,FALSE,FALSE,FALSE,FALSE,FALSE,FALSE
food-lion-raleigh-8,food lion,FALSE,3,4,2861 Jones Franklin Rd,27606,35.74357782,-78.73831438,$$,19192339708,FALSE,FALSE,FALSE,FALSE,FALSE,FALSE,TRUE,FALSE,FALSE,FALSE,FALSE,FALSE,FALSE,FALSE,FALSE,FALSE,FALSE,FALSE,FALSE,FALSE
olive-garden-italian-restaurant-cary-2,olive garden italian restaurant,FALSE,2.5,52,1809 Walnut St,27511,35.7599982,-78.7430643,$$,19192339714,FALSE,FALSE,FALSE,FALSE,FALSE,FALSE,FALSE,FALSE,FALSE,FALSE,TRUE,FALSE,FALSE,FALSE,FALSE,TRUE,FALSE,FALSE,FALSE,FALSE
judith-valerie-yoga-raleigh,judith valerie yoga,FALSE,5,6,5315 Creedmoor Rd,27612,35.8557205,-78.6823425,"NA",19192339777,FALSE,FALSE,FALSE,FALSE,FALSE,FALSE,FALSE,FALSE,FALSE,FALSE,FALSE,FALSE,FALSE,FALSE,FALSE,FALSE,FALSE,FALSE,FALSE,FALSE
burger-king-cary-3,burger king,FALSE,2,5,313 Colonades Way,27518,35.73966256,-78.77898616,$,19192339855,TRUE,FALSE,FALSE,FALSE,TRUE,FALSE,FALSE,FALSE,FALSE,FALSE,FALSE,FALSE,FALSE,FALSE,FALSE,FALSE,FALSE,FALSE,FALSE,FALSE
world-of-beer-cary-2,world of beer,FALSE,3,40,2036 Renaissance Park Pl,27513,35.8268533,-78.7716853,$$,19192340088,FALSE,FALSE,FALSE,TRUE,FALSE,FALSE,FALSE,FALSE,FALSE,FALSE,FALSE,FALSE,FALSE,FALSE,FALSE,FALSE,FALSE,FALSE,FALSE,FALSE
pizza-hut-morrisville-3,pizza hut,FALSE,2.5,13,"11010 Lake Grove Blvd.,Suite 102",27560,35.826025,-78.842454,$,19192340652,FALSE,FALSE,TRUE,FALSE,FALSE,FALSE,FALSE,FALSE,FALSE,FALSE,TRUE,FALSE,TRUE,FALSE,FALSE,FALSE,FALSE,FALSE,FALSE,FALSE
pharmacy-bottle-and-beverage-cary,pharmacy bottle and beverage,FALSE,4.5,35,120 E Chatham St,27511,35.78712441,-78.7803758,$,19192341098,FALSE,FALSE,FALSE,FALSE,FALSE,FALSE,FALSE,FALSE,FALSE,FALSE,FALSE,FALSE,FALSE,FALSE,FALSE,FALSE,FALSE,FALSE,FALSE,FALSE
cilantro-indian-cafe-cary-2,cilantro indian cafe,FALSE,4.5,190,107 Edinburgh S Dr,27511,35.736763,-78.797925,$$,19192341264,FALSE,FALSE,FALSE,FALSE,FALSE,FALSE,FALSE,FALSE,FALSE,FALSE,FALSE,FALSE,FALSE,FALSE,FALSE,FALSE,FALSE,FALSE,FALSE,FALSE
penn-station-east-coast-subs-cary,penn station east coast subs,FALSE,4,8,700 Cary Towne Blvd,27511,35.775547,-78.7657242,$,19192341342,FALSE,TRUE,FALSE,FALSE,FALSE,FALSE,FALSE,FALSE,FALSE,FALSE,FALSE,FALSE,FALSE,FALSE,FALSE,FALSE,FALSE,FALSE,FALSE,FALSE
hungry-howies-pizza-cary-2,hungry howie's pizza,FALSE,3,15,1904 NW Maynard Rd Unit C,27513,35.798876,-78.794904,$,19192341380,FALSE,FALSE,TRUE,FALSE,FALSE,FALSE,FALSE,FALSE,FALSE,FALSE,FALSE,FALSE,FALSE,FALSE,FALSE,FALSE,FALSE,FALSE,FALSE,FALSE
peacock-cary,peacock,FALSE,4,69,2250 Gathering Park Cir,27519,35.8202744,-78.8574829,$$,19192341387,FALSE,FALSE,FALSE,FALSE,FALSE,FALSE,FALSE,FALSE,FALSE,FALSE,FALSE,FALSE,FALSE,FALSE,FALSE,FALSE,FALSE,FALSE,FALSE,FALSE
guacamaya-fresh-mex-cary,guacamaya fresh mex,FALSE,4,62,101 Ledgestone Way,27519,35.79237665,-78.84868401,$,19192341949,FALSE,FALSE,FALSE,FALSE,FALSE,TRUE,FALSE,FALSE,FALSE,FALSE,FALSE,FALSE,FALSE,FALSE,FALSE,FALSE,FALSE,FALSE,FALSE,FALSE
spice-and-curry-morrisville,spice & curry,FALSE,3.5,21,6105 Grace Park Dr,27560,35.8200266,-78.8456872,$$,19192346281,FALSE,FALSE,FALSE,FALSE,FALSE,FALSE,FALSE,FALSE,FALSE,FALSE,FALSE,FALSE,FALSE,FALSE,FALSE,FALSE,FALSE,FALSE,FALSE,FALSE
taste-vietnamese-cuisine-morrisville,taste vietnamese cuisine,FALSE,4,258,152 Morrisville Sq Way,27560,35.81944871,-78.82902861,$,19192346385,FALSE,FALSE,FALSE,FALSE,FALSE,FALSE,FALSE,FALSE,FALSE,FALSE,FALSE,FALSE,FALSE,FALSE,FALSE,FALSE,FALSE,FALSE,FALSE,FALSE
uncle-maddios-pizza-joint-cary,uncle maddio's pizza joint,FALSE,4,74,7157 Okelly Chapel Rd,32256,35.84388014,-78.88820669,$,19192346447,FALSE,TRUE,TRUE,FALSE,FALSE,FALSE,FALSE,FALSE,FALSE,FALSE,FALSE,FALSE,FALSE,FALSE,FALSE,TRUE,FALSE,FALSE,FALSE,FALSE
godavari-indian-restaurant-morrisville,godavari indian restaurant,FALSE,3.5,110,100 Jerusalem Dr,27615,35.85099,-78.82705,$$,19192346950,FALSE,FALSE,FALSE,FALSE,FALSE,FALSE,FALSE,FALSE,FALSE,FALSE,FALSE,FALSE,FALSE,FALSE,FALSE,FALSE,FALSE,FALSE,FALSE,FALSE
total-wine-and-more-raleigh-2,total wine & more,FALSE,4,14,6105 Capital Blvd,27616,35.869206,-78.583155,$$,19192350000,FALSE,FALSE,FALSE,FALSE,FALSE,FALSE,FALSE,FALSE,FALSE,FALSE,FALSE,FALSE,FALSE,FALSE,FALSE,FALSE,FALSE,FALSE,FALSE,FALSE
linda-craft-and-team-raleigh-4,linda craft & team,FALSE,3.5,7,7300 Six Forks Rd,27615,35.8793488,-78.6454697,"NA",19192350007,FALSE,FALSE,FALSE,FALSE,FALSE,FALSE,FALSE,FALSE,FALSE,FALSE,FALSE,FALSE,FALSE,FALSE,FALSE,FALSE,FALSE,FALSE,FALSE,FALSE
hako-japanese-restaurant-raleigh,hako japanese restaurant,FALSE,3.5,57,2603-155 Glenwood Ave,27608,35.81504657,-78.66101503,$$,19192350589,FALSE,FALSE,FALSE,FALSE,FALSE,FALSE,FALSE,FALSE,FALSE,FALSE,FALSE,FALSE,FALSE,FALSE,FALSE,FALSE,FALSE,FALSE,FALSE,TRUE
dominos-pizza-raleigh-19,domino's pizza,FALSE,3.5,5,2881 Jones Franklin Rd,27606,35.74427993,-78.73665176,"NA",19192350808,FALSE,TRUE,TRUE,FALSE,FALSE,FALSE,FALSE,FALSE,FALSE,FALSE,FALSE,FALSE,TRUE,FALSE,FALSE,FALSE,FALSE,FALSE,FALSE,FALSE
total-wine-and-more-cary,total wine & more,FALSE,3.5,15,333 Crossroads Blvd,27518,35.761451,-78.737831,$$,19192353322,FALSE,FALSE,FALSE,FALSE,FALSE,FALSE,FALSE,FALSE,FALSE,FALSE,FALSE,FALSE,FALSE,FALSE,FALSE,FALSE,FALSE,FALSE,FALSE,FALSE
moes-southwest-grill-raleigh-6,moe's southwest grill,FALSE,2,11,4325 Glenwood Ave,27612,35.8386157,-78.6751253,$,19192354550,FALSE,FALSE,FALSE,FALSE,FALSE,TRUE,FALSE,FALSE,FALSE,FALSE,FALSE,FALSE,FALSE,FALSE,FALSE,FALSE,FALSE,FALSE,FALSE,FALSE
vs-kitchen-durham-2,v's kitchen,FALSE,4,14,2945 South Miami Blvd,27703,35.92463909,-78.84438103,$,19192371257,FALSE,FALSE,FALSE,TRUE,FALSE,FALSE,FALSE,FALSE,FALSE,FALSE,FALSE,FALSE,FALSE,FALSE,FALSE,FALSE,FALSE,FALSE,FALSE,FALSE
falafel-54-durham-2,falafel 54,FALSE,4,35,2105 NC Hwy 54,27703,35.9113608,-78.9852737,$$,19192371635,FALSE,FALSE,FALSE,FALSE,FALSE,FALSE,FALSE,FALSE,FALSE,FALSE,FALSE,FALSE,FALSE,FALSE,FALSE,FALSE,FALSE,FALSE,FALSE,FALSE
the-saucy-crab-durham,the saucy crab,FALSE,3,94,4020 Durham Chapel Hill Blvd,27707,35.969809,-78.960126,$$,19192371935,FALSE,FALSE,FALSE,FALSE,FALSE,FALSE,FALSE,FALSE,FALSE,FALSE,FALSE,FALSE,FALSE,FALSE,FALSE,FALSE,TRUE,FALSE,FALSE,FALSE
happy-china-durham,happy china,FALSE,3.5,147,2505 Durham Chapel Hill Blvd,27707,35.9745,-78.92537,$$,19192372021,FALSE,FALSE,FALSE,FALSE,FALSE,FALSE,FALSE,FALSE,FALSE,TRUE,FALSE,FALSE,FALSE,FALSE,FALSE,FALSE,FALSE,FALSE,FALSE,FALSE
taste-carolina-gourmet-food-tours-raleigh,taste carolina gourmet food tours,FALSE,4.5,86,"NA",27601,35.77742,-78.63328,$$,19192372254,FALSE,FALSE,FALSE,FALSE,FALSE,FALSE,FALSE,FALSE,FALSE,FALSE,FALSE,FALSE,FALSE,FALSE,FALSE,FALSE,FALSE,FALSE,FALSE,FALSE
bull-street-gourmet-and-market-durham,bull street gourmet & market,FALSE,4,96,3710 Shannon Rd,27707,35.956193,-78.956087,$$,19192372398,FALSE,TRUE,FALSE,FALSE,FALSE,FALSE,FALSE,TRUE,FALSE,FALSE,FALSE,FALSE,FALSE,FALSE,FALSE,TRUE,FALSE,FALSE,FALSE,FALSE
wingstop-raleigh-2,wingstop,FALSE,3,17,7880 Alexander Promenade Pl,27617,35.9134762,-78.7799238,$,19192373919,FALSE,FALSE,FALSE,FALSE,FALSE,FALSE,FALSE,FALSE,FALSE,FALSE,FALSE,FALSE,TRUE,FALSE,FALSE,FALSE,FALSE,FALSE,FALSE,FALSE
city-barbeque-durham-2,city barbeque,FALSE,4,68,208 W Nc Hwy 54,27713,35.91126723,-78.93735502,$$,19192379509,FALSE,FALSE,FALSE,FALSE,FALSE,FALSE,FALSE,FALSE,FALSE,FALSE,FALSE,FALSE,FALSE,FALSE,FALSE,FALSE,FALSE,TRUE,FALSE,FALSE
chipotle-mexican-grill-morrisville,chipotle mexican grill,FALSE,3,35,1516 Village Market Pl,27560,35.80673897,-78.81490344,$,19192383971,TRUE,FALSE,FALSE,FALSE,FALSE,TRUE,FALSE,FALSE,FALSE,FALSE,FALSE,FALSE,FALSE,FALSE,FALSE,FALSE,FALSE,FALSE,FALSE,FALSE
spices-hut-morrisville,spices hut,FALSE,3,8,9601 Chapel Hill Rd,27560,35.8060188,-78.8106537,$,19192384646,FALSE,FALSE,FALSE,FALSE,FALSE,FALSE,TRUE,FALSE,FALSE,FALSE,FALSE,FALSE,FALSE,FALSE,FALSE,FALSE,FALSE,FALSE,FALSE,FALSE
sugar-buzz-bakery-cary,sugar buzz bakery,FALSE,4,58,1231 Kildaire Farm Rd,27511,35.76305216,-78.78264411,$,19192387224,FALSE,FALSE,FALSE,FALSE,FALSE,FALSE,FALSE,FALSE,FALSE,FALSE,FALSE,FALSE,FALSE,FALSE,FALSE,FALSE,FALSE,FALSE,TRUE,FALSE
oro-restaurant-and-lounge-raleigh,oro restaurant & lounge,FALSE,4,182,18 E Martin St,27601,35.77688183,-78.638474,$$,19192394010,FALSE,FALSE,FALSE,FALSE,FALSE,FALSE,FALSE,FALSE,FALSE,FALSE,FALSE,TRUE,FALSE,FALSE,FALSE,FALSE,FALSE,FALSE,FALSE,FALSE
sitti-raleigh,sitti,FALSE,4,553,137 S Wilmington St,27601,35.77840543,-78.63813523,$$,19192394070,FALSE,FALSE,FALSE,FALSE,FALSE,FALSE,FALSE,FALSE,FALSE,FALSE,FALSE,FALSE,FALSE,FALSE,FALSE,FALSE,FALSE,FALSE,FALSE,FALSE
jimmy-johns-raleigh-7,jimmy john's,FALSE,3,14,6286 Glenwood Ave,27612,35.8579469,-78.703944,$,19192394114,FALSE,TRUE,FALSE,FALSE,FALSE,FALSE,FALSE,FALSE,FALSE,FALSE,FALSE,FALSE,FALSE,FALSE,FALSE,FALSE,FALSE,FALSE,FALSE,FALSE
artylicious-cakes-raleigh,artylicious cakes,FALSE,4,22,,27617,35.90165,-78.7981,$$,19192394236,FALSE,FALSE,FALSE,FALSE,FALSE,FALSE,FALSE,FALSE,FALSE,FALSE,FALSE,FALSE,FALSE,FALSE,FALSE,FALSE,FALSE,FALSE,TRUE,FALSE
mark-christopher-salon-raleigh,mark christopher salon,FALSE,4.5,41,509 W Whitaker Mill Rd,27608,35.8039894,-78.6447372,$$,19192394383,FALSE,FALSE,FALSE,FALSE,FALSE,FALSE,FALSE,FALSE,FALSE,FALSE,FALSE,FALSE,FALSE,FALSE,FALSE,FALSE,FALSE,FALSE,FALSE,FALSE
tarbouch-raleigh,tarbouch,FALSE,4,91,5645 Creedmoor Rd,27612,35.8590323,-78.6808933,$,19192394408,FALSE,FALSE,FALSE,FALSE,FALSE,FALSE,FALSE,FALSE,FALSE,FALSE,FALSE,FALSE,FALSE,FALSE,FALSE,FALSE,FALSE,FALSE,FALSE,FALSE
davids-dumpling-and-noodle-bar-raleigh,david's dumpling & noodle bar,FALSE,4,375,1900 Hillsborough St,27607,35.78585154,-78.66142563,$$,19192394536,FALSE,FALSE,FALSE,FALSE,FALSE,FALSE,FALSE,FALSE,FALSE,FALSE,FALSE,FALSE,FALSE,FALSE,FALSE,FALSE,FALSE,FALSE,FALSE,FALSE
deja-brew-coffee-house-raleigh-2,deja brew  coffee house,FALSE,3.5,53,5001 Falls of Neuse Rd,27609,35.84915076,-78.61510301,$,19192394612,FALSE,FALSE,FALSE,FALSE,FALSE,FALSE,FALSE,FALSE,TRUE,FALSE,FALSE,FALSE,FALSE,FALSE,FALSE,FALSE,FALSE,FALSE,FALSE,FALSE
doubletree-by-hilton-cary,doubletree by hilton,FALSE,3.5,13,500 Caitboo Ave,27518,35.75697,-78.7360099,$$,19192394777,FALSE,FALSE,FALSE,FALSE,FALSE,FALSE,FALSE,FALSE,FALSE,FALSE,FALSE,FALSE,FALSE,FALSE,FALSE,FALSE,FALSE,FALSE,FALSE,FALSE
steel-string-brewery-carrboro,steel string brewery,FALSE,4,71,106A S Greensboro St,27510,35.9098184,-79.0726016,$,19192407215,FALSE,FALSE,FALSE,FALSE,FALSE,FALSE,FALSE,FALSE,FALSE,FALSE,FALSE,FALSE,FALSE,FALSE,FALSE,FALSE,FALSE,FALSE,FALSE,FALSE
big-cheese-pizza-clayton,big cheese pizza,FALSE,2.5,7,11373 US 70 Bus Hwy W,27527,35.650013,-78.4695969,$,19192431019,FALSE,FALSE,TRUE,FALSE,FALSE,FALSE,FALSE,FALSE,FALSE,FALSE,TRUE,FALSE,FALSE,FALSE,FALSE,FALSE,FALSE,FALSE,FALSE,FALSE
mcconnell-auto-glass-raleigh,mcconnell auto glass,FALSE,5,1,,27609,35.85381,-78.61079,"NA",19192447867,FALSE,FALSE,FALSE,FALSE,FALSE,FALSE,FALSE,FALSE,FALSE,FALSE,FALSE,FALSE,FALSE,FALSE,FALSE,FALSE,FALSE,FALSE,FALSE,FALSE
laplace-louisiana-cookery-hillsborough,laplace louisiana cookery,FALSE,4,98,111 N Churton St,27278,36.0757337,-79.0996189,$$,19192450041,FALSE,FALSE,FALSE,FALSE,FALSE,FALSE,FALSE,FALSE,FALSE,FALSE,FALSE,FALSE,FALSE,FALSE,FALSE,FALSE,FALSE,FALSE,FALSE,FALSE
radius-pizzeria-and-pub-hillsborough,radius pizzeria & pub,FALSE,3.5,89,112 N Churton St,27278,36.075889599999996,-79.0992966,$$,19192450601,FALSE,FALSE,TRUE,FALSE,FALSE,FALSE,FALSE,FALSE,FALSE,FALSE,FALSE,FALSE,FALSE,FALSE,FALSE,FALSE,FALSE,FALSE,FALSE,FALSE
fairfield-inn-and-suites-raleigh-durham-airport-brier-creek-raleigh,fairfield inn & suites raleigh-durham airport/brier creek,FALSE,4,17,10040 Sellona St,27617,35.8955803,-78.8047104,$$,19192460107,FALSE,FALSE,FALSE,FALSE,FALSE,FALSE,FALSE,FALSE,FALSE,FALSE,FALSE,FALSE,FALSE,FALSE,FALSE,FALSE,FALSE,FALSE,FALSE,FALSE
brixx-wood-fired-pizza-raleigh-4,brixx wood fired pizza,FALSE,4,194,8511 Brier Creek Pkwy,27617,35.9057239,-78.7858036,$$,19192460640,FALSE,FALSE,TRUE,FALSE,FALSE,FALSE,FALSE,FALSE,FALSE,FALSE,FALSE,FALSE,FALSE,FALSE,FALSE,FALSE,FALSE,FALSE,FALSE,FALSE
natural-zen-cleaning-raleigh-3,natural zen cleaning,FALSE,5,37,,27617,35.90228991,-78.77129139,"NA",19192464978,FALSE,FALSE,FALSE,FALSE,FALSE,FALSE,FALSE,FALSE,FALSE,FALSE,FALSE,FALSE,FALSE,FALSE,FALSE,FALSE,FALSE,FALSE,FALSE,FALSE
dog-tales-durham,dog tales,FALSE,5,3,1204 Patterson Rd,27704,35.99508,-78.78438,"NA",19192466670,FALSE,FALSE,FALSE,FALSE,FALSE,FALSE,FALSE,FALSE,FALSE,FALSE,FALSE,FALSE,FALSE,FALSE,FALSE,FALSE,FALSE,FALSE,FALSE,FALSE
lumber-liquidators-durham,lumber liquidators,FALSE,5,5,3157 Hillsborough Rd,27705,36.01699,-78.94087,"NA",19192469986,FALSE,FALSE,FALSE,FALSE,FALSE,FALSE,FALSE,FALSE,FALSE,FALSE,FALSE,FALSE,FALSE,FALSE,FALSE,FALSE,FALSE,FALSE,FALSE,FALSE
sola-salon-studios-cary,sola salon studios,FALSE,4.5,14,Salt Box Village,27511,35.76231,-78.7832718,$$,19192479921,FALSE,FALSE,FALSE,FALSE,FALSE,FALSE,FALSE,FALSE,FALSE,FALSE,FALSE,FALSE,FALSE,FALSE,FALSE,FALSE,FALSE,FALSE,FALSE,FALSE
bonefish-grill-durham,bonefish grill,FALSE,3,96,7820 NC Highway 751,27713,35.90119523,-78.9602617,$$,19192482906,FALSE,FALSE,FALSE,FALSE,FALSE,FALSE,FALSE,FALSE,FALSE,FALSE,FALSE,FALSE,FALSE,FALSE,FALSE,FALSE,TRUE,FALSE,FALSE,FALSE
rise-biscuits-and-donuts-durham,rise biscuits & donuts,FALSE,4.5,500,8200 Renaissance Pkwy,27713,35.9039798,-78.9543714,$,19192482992,FALSE,FALSE,FALSE,FALSE,FALSE,FALSE,FALSE,TRUE,FALSE,FALSE,FALSE,FALSE,FALSE,FALSE,FALSE,FALSE,FALSE,FALSE,FALSE,FALSE
primal-food-and-spirits-durham-3,primal food & spirits,FALSE,3.5,128,202 W Hwy 54,27713,35.9110368,-78.9375428,$$,19192483000,FALSE,FALSE,FALSE,FALSE,FALSE,FALSE,FALSE,FALSE,FALSE,FALSE,FALSE,FALSE,FALSE,FALSE,FALSE,FALSE,FALSE,FALSE,FALSE,FALSE
jersey-mikes-subs-durham-5,jersey mike's subs,FALSE,5,3,7005 Fayetteville Road,27713,35.9019241,-78.9393234,$,19192488300,TRUE,TRUE,FALSE,FALSE,FALSE,FALSE,FALSE,FALSE,FALSE,FALSE,FALSE,FALSE,FALSE,TRUE,FALSE,FALSE,FALSE,FALSE,FALSE,FALSE
india-gate-durham,india gate,FALSE,4,71,2223 E NC Hwy 54,27713,35.90118705,-78.89132452,$$,19192489333,FALSE,FALSE,FALSE,FALSE,FALSE,FALSE,FALSE,FALSE,FALSE,FALSE,FALSE,FALSE,FALSE,FALSE,FALSE,FALSE,FALSE,FALSE,FALSE,FALSE
fastmed-urgent-care-apex,fastmed urgent care,FALSE,2.5,15,2021 Creekside Landing Drive,27502,35.74637294,-78.88526917,"NA",19192491259,FALSE,FALSE,FALSE,FALSE,FALSE,FALSE,FALSE,FALSE,FALSE,FALSE,FALSE,FALSE,FALSE,FALSE,FALSE,FALSE,FALSE,FALSE,FALSE,FALSE
papa-murphys-apex,papa murphy's,FALSE,4.5,9,756 W Williams St,27502,35.7380235,-78.86327949,$,19192494949,FALSE,FALSE,TRUE,FALSE,FALSE,FALSE,FALSE,FALSE,FALSE,FALSE,FALSE,FALSE,FALSE,FALSE,FALSE,FALSE,FALSE,FALSE,FALSE,FALSE
massageluxe-raleigh,massageluxe,FALSE,4,24,7436 Creedmoor Rd,27613,35.8883434,-78.6794774,$$,19192495244,FALSE,FALSE,FALSE,FALSE,FALSE,FALSE,FALSE,FALSE,FALSE,FALSE,FALSE,FALSE,FALSE,FALSE,FALSE,FALSE,FALSE,FALSE,FALSE,FALSE
mcdonalds-raleigh-2,mcdonald's,FALSE,2.5,2,3424 Poole Rd,27610,35.7674904,-78.5782089,$,19192500072,TRUE,FALSE,FALSE,FALSE,TRUE,FALSE,FALSE,FALSE,FALSE,FALSE,FALSE,FALSE,FALSE,FALSE,FALSE,FALSE,FALSE,FALSE,FALSE,FALSE
papa-johns-pizza-raleigh,papa john's pizza,FALSE,3.5,8,3591 Maitland Dr,27610,35.7972488,-78.5804596,$,19192500101,FALSE,FALSE,TRUE,FALSE,FALSE,FALSE,FALSE,FALSE,FALSE,FALSE,FALSE,FALSE,FALSE,FALSE,FALSE,FALSE,FALSE,FALSE,FALSE,FALSE
el-taco-market-raleigh,el taco market,FALSE,4,30,3800 New Bern Ave,27610,35.797415,-78.576007,$,19192500412,FALSE,FALSE,FALSE,FALSE,FALSE,TRUE,FALSE,FALSE,FALSE,FALSE,FALSE,FALSE,FALSE,FALSE,FALSE,FALSE,FALSE,FALSE,FALSE,FALSE
mikes-pizza-raleigh,mike's pizza,FALSE,5,6,3919 New Bern Ave,27610,35.799234,-78.5707718,$$,19192500700,FALSE,TRUE,TRUE,FALSE,FALSE,FALSE,FALSE,FALSE,FALSE,FALSE,TRUE,FALSE,FALSE,FALSE,FALSE,FALSE,FALSE,FALSE,FALSE,FALSE
3-olives-pizza-and-deli-raleigh,3 olives pizza & deli,FALSE,3.5,5,800 S New Hope Rd,27610,35.7652206,-78.5599594,$$,19192500933,FALSE,FALSE,TRUE,FALSE,FALSE,FALSE,FALSE,FALSE,FALSE,FALSE,FALSE,FALSE,FALSE,TRUE,FALSE,FALSE,FALSE,FALSE,FALSE,FALSE
wendys-raleigh-22,wendy's,FALSE,3.5,3,3701 New Bern Avenue,27610,35.79806347,-78.57721545,$,19192506034,TRUE,FALSE,FALSE,FALSE,TRUE,FALSE,FALSE,FALSE,FALSE,FALSE,FALSE,FALSE,FALSE,FALSE,FALSE,FALSE,FALSE,FALSE,FALSE,FALSE
carlie-cs-raleigh,carlie c's,FALSE,3,9,4111 New Bern Ave,27610,35.7991649,-78.5674006,$$,19192507876,FALSE,FALSE,FALSE,FALSE,FALSE,FALSE,TRUE,FALSE,FALSE,FALSE,FALSE,FALSE,FALSE,FALSE,FALSE,FALSE,FALSE,FALSE,FALSE,FALSE
au-bon-pain-raleigh,au bon pain,FALSE,3.5,10,Wake Med Hospital,27610,35.7852278,-78.588362,$$,19192509510,FALSE,FALSE,FALSE,FALSE,FALSE,FALSE,FALSE,FALSE,FALSE,FALSE,FALSE,FALSE,FALSE,FALSE,FALSE,FALSE,FALSE,FALSE,FALSE,FALSE
mens-club-raleigh,men's club,FALSE,2.5,16,3210 Yonkers Rd,27604,35.79782,-78.58928,$$,19192509826,FALSE,FALSE,FALSE,FALSE,FALSE,FALSE,FALSE,FALSE,FALSE,FALSE,FALSE,FALSE,FALSE,FALSE,FALSE,FALSE,FALSE,FALSE,FALSE,FALSE
dashi-durham-2,dashi,FALSE,3.5,251,415 E Chapel Hill St,27701,35.9970894,-78.8992233,$$,19192519335,FALSE,FALSE,FALSE,FALSE,FALSE,FALSE,FALSE,FALSE,FALSE,FALSE,FALSE,FALSE,FALSE,FALSE,FALSE,FALSE,FALSE,FALSE,FALSE,FALSE
mediterranean-grill-and-grocery-durham,mediterranean grill & grocery,FALSE,4.5,142,5114 Revere Rd,27713,35.8946093,-78.9103927,$,19192519366,FALSE,FALSE,FALSE,FALSE,FALSE,FALSE,TRUE,FALSE,FALSE,FALSE,FALSE,FALSE,FALSE,FALSE,FALSE,FALSE,FALSE,FALSE,FALSE,FALSE
ruby-tuesday-raleigh-3,ruby tuesday,FALSE,3,17,4411 New Bern Avenue,27610,35.79898,-78.5614,$$,19192551801,FALSE,FALSE,FALSE,TRUE,TRUE,FALSE,FALSE,FALSE,FALSE,FALSE,FALSE,FALSE,FALSE,FALSE,FALSE,FALSE,FALSE,FALSE,FALSE,FALSE
us-post-office-sunnybrook-raleigh,us post office - sunnybrook,FALSE,1.5,16,236 Sunnybrook Rd,27610,35.77806,-78.58458,"NA",19192556013,FALSE,FALSE,FALSE,FALSE,FALSE,FALSE,FALSE,FALSE,FALSE,FALSE,FALSE,FALSE,FALSE,FALSE,FALSE,FALSE,FALSE,FALSE,FALSE,FALSE
remington-grill-raleigh-2,remington grill,FALSE,3,15,4551 New Bern Ave,27610,35.79981,-78.55807,$,19192556891,FALSE,FALSE,FALSE,TRUE,TRUE,FALSE,FALSE,FALSE,FALSE,FALSE,FALSE,FALSE,FALSE,FALSE,FALSE,FALSE,FALSE,TRUE,FALSE,FALSE
el-tapatio-mexican-restaurant-raleigh,el tapatio mexican restaurant,FALSE,4,55,4511 New Bern Ave,27610,35.79875,-78.55937,$,19192559161,FALSE,FALSE,FALSE,FALSE,FALSE,TRUE,FALSE,FALSE,FALSE,FALSE,FALSE,FALSE,FALSE,FALSE,FALSE,FALSE,FALSE,FALSE,FALSE,FALSE
overtime-sports-pub-raleigh,overtime sports pub,FALSE,3.5,19,1030 N Rogers Ln,27610,35.79107851,-78.54768054,$,19192559556,FALSE,FALSE,FALSE,TRUE,FALSE,FALSE,FALSE,FALSE,FALSE,FALSE,FALSE,FALSE,FALSE,FALSE,FALSE,FALSE,FALSE,FALSE,FALSE,FALSE
jimmy-vs-osteria-and-bar-raleigh,jimmy v's osteria & bar,FALSE,3.5,151,420 Fayetteville St,27601,35.77477801,-78.63954291,$$,19192561451,FALSE,FALSE,FALSE,TRUE,FALSE,FALSE,FALSE,FALSE,FALSE,FALSE,TRUE,FALSE,FALSE,FALSE,TRUE,FALSE,FALSE,FALSE,FALSE,FALSE
city-barbeque-garner,city barbeque,FALSE,4,90,110 Cabela Dr,27529,35.6984789,-78.5840416,$$,19192582009,FALSE,FALSE,FALSE,FALSE,FALSE,FALSE,FALSE,FALSE,FALSE,FALSE,FALSE,FALSE,FALSE,FALSE,FALSE,FALSE,FALSE,TRUE,FALSE,FALSE
acupuncture-pain-and-stress-center-raleigh,acupuncture pain and stress center,FALSE,5,7,100 E Six Forks Rd,27609,35.821928,-78.632037,"NA",19192604104,FALSE,FALSE,FALSE,FALSE,FALSE,FALSE,FALSE,FALSE,FALSE,FALSE,FALSE,FALSE,FALSE,FALSE,FALSE,FALSE,FALSE,FALSE,FALSE,FALSE
el-senor-knightdale,el senor,FALSE,4,55,2001 Wide Waters Pkwy,27545,35.7951202,-78.5051575,$,19192610808,FALSE,FALSE,FALSE,FALSE,FALSE,TRUE,FALSE,FALSE,FALSE,FALSE,FALSE,FALSE,FALSE,FALSE,FALSE,FALSE,FALSE,FALSE,FALSE,FALSE
slice-of-ny-pizza-knightdale,slice of ny pizza,FALSE,3,28,1016 Shoppes At Midway Dr,27545,35.7981834,-78.5050049,$,19192619478,FALSE,FALSE,TRUE,FALSE,FALSE,FALSE,FALSE,FALSE,FALSE,FALSE,FALSE,FALSE,FALSE,FALSE,FALSE,FALSE,FALSE,FALSE,FALSE,FALSE
hwy-55-burgers-shakes-and-fries-knightdale,hwy 55 burgers shakes & fries,FALSE,4,15,1011 S Smithfield Rd,28545,35.79678557,-78.48813756,$,19192619841,FALSE,FALSE,FALSE,TRUE,TRUE,FALSE,FALSE,FALSE,FALSE,FALSE,FALSE,FALSE,FALSE,FALSE,FALSE,FALSE,FALSE,FALSE,FALSE,FALSE
arbys-zebulon,arby's,FALSE,2,2,171 Wakelon St,27597,35.83302,-78.31485,"NA",19192690995,TRUE,TRUE,FALSE,FALSE,FALSE,FALSE,FALSE,FALSE,FALSE,FALSE,FALSE,FALSE,FALSE,FALSE,FALSE,FALSE,FALSE,FALSE,FALSE,FALSE
zaxbys-chicken-fingers-and-buffalo-wings-knightdale,zaxby's chicken fingers & buffalo wings,FALSE,3.5,9,6702 Knightdale Blvd,27545,35.79659,-78.5040099,$,19192619995,TRUE,FALSE,FALSE,FALSE,FALSE,FALSE,FALSE,FALSE,FALSE,FALSE,FALSE,FALSE,TRUE,FALSE,FALSE,TRUE,FALSE,FALSE,FALSE,FALSE
lelis-diner-wake-forest-5,leli's diner,FALSE,4,83,3325 Rogers Rd,27587,35.95053078,-78.51397099,$$,19192631377,FALSE,FALSE,FALSE,FALSE,FALSE,FALSE,FALSE,TRUE,FALSE,FALSE,FALSE,FALSE,FALSE,FALSE,FALSE,FALSE,FALSE,FALSE,FALSE,FALSE
dickeys-barbecue-pit-raleigh-4,dickey's barbecue pit,FALSE,3,23,14460 New Falls of Neuse Road,27614,35.94277196,-78.54354916,$$,19192631422,FALSE,FALSE,FALSE,FALSE,FALSE,FALSE,FALSE,FALSE,FALSE,FALSE,FALSE,FALSE,FALSE,FALSE,FALSE,FALSE,FALSE,TRUE,FALSE,FALSE
honeybaked-ham-wake-forest-raleigh,honeybaked ham - wake forest,FALSE,4,1,14460 Falls Of Neuse Rd,27614,35.9435451,-78.5439212,"NA",19192631796,FALSE,TRUE,FALSE,FALSE,FALSE,FALSE,FALSE,FALSE,FALSE,FALSE,FALSE,FALSE,FALSE,TRUE,FALSE,FALSE,FALSE,FALSE,FALSE,FALSE
tcr-triangle-cellular-repair-durham,tcr: triangle cellular repair,FALSE,5,40,6910 Fayetteville Rd,27713,35.90312997,-78.94211567,$$,19192632699,FALSE,FALSE,FALSE,FALSE,FALSE,FALSE,FALSE,FALSE,FALSE,FALSE,FALSE,FALSE,FALSE,FALSE,FALSE,FALSE,FALSE,FALSE,FALSE,FALSE
sams-club-wake-forest-2,sam's club,FALSE,5,1,11460 Royall Cotton Rd,27587,35.97509,-78.50752,$$,19192636124,FALSE,FALSE,FALSE,FALSE,FALSE,FALSE,FALSE,FALSE,FALSE,FALSE,FALSE,FALSE,FALSE,FALSE,FALSE,FALSE,FALSE,FALSE,FALSE,FALSE
sams-club-wake-forest,sam's club,FALSE,4,1,11460 Royall Cotton Rd,27587,35.97987338,-78.50972269,$,19192636134,FALSE,FALSE,FALSE,FALSE,FALSE,FALSE,TRUE,FALSE,FALSE,FALSE,FALSE,FALSE,FALSE,FALSE,FALSE,FALSE,FALSE,FALSE,FALSE,FALSE
sushi-siam-wake-forest,sushi siam,FALSE,3.5,16,928 Gateway Commons Circle,27587,35.96677301,-78.49562571,$$,19192638241,FALSE,FALSE,FALSE,FALSE,FALSE,FALSE,FALSE,FALSE,FALSE,FALSE,FALSE,FALSE,FALSE,FALSE,FALSE,FALSE,FALSE,FALSE,FALSE,TRUE
pink-boutique-wake-forest,pink boutique,FALSE,4.5,3,113 S White St,27587,35.9785345,-78.5093747,"NA",19192638548,FALSE,FALSE,FALSE,FALSE,FALSE,FALSE,FALSE,FALSE,FALSE,FALSE,FALSE,FALSE,FALSE,FALSE,FALSE,FALSE,FALSE,FALSE,FALSE,FALSE
mcpherson-family-eye-care-wake-forest,mcpherson family eye care,FALSE,5,2,3150 Rogers Rd,27587,35.949879,-78.520137,$$$,19192639163,FALSE,FALSE,FALSE,FALSE,FALSE,FALSE,FALSE,FALSE,FALSE,FALSE,FALSE,FALSE,FALSE,FALSE,FALSE,FALSE,FALSE,FALSE,FALSE,FALSE
schianos-wake-forest,schiano's,FALSE,3.5,24,948 Gateway Commons Cir,27587,35.9684041,-78.4945867,$,19192639177,FALSE,FALSE,TRUE,FALSE,FALSE,FALSE,FALSE,FALSE,FALSE,FALSE,TRUE,FALSE,TRUE,FALSE,FALSE,FALSE,FALSE,FALSE,FALSE,FALSE
subway-raleigh-23,subway,FALSE,2.5,2,8410 Louisburg Rd,27616,35.8933005,-78.51038957,"NA",19192660300,TRUE,TRUE,FALSE,FALSE,FALSE,FALSE,FALSE,FALSE,FALSE,FALSE,FALSE,FALSE,FALSE,FALSE,FALSE,FALSE,FALSE,FALSE,FALSE,FALSE
wendys-knightdale,wendy's,FALSE,2.5,3,7132 Knightdale Blvd,27545,35.7980347,-78.4887695,$,19192660917,TRUE,FALSE,FALSE,FALSE,TRUE,FALSE,FALSE,FALSE,FALSE,FALSE,FALSE,FALSE,FALSE,FALSE,FALSE,FALSE,FALSE,FALSE,FALSE,FALSE
moes-southwest-grill-knightdale,moe's southwest grill,FALSE,3,11,1016 A Shoppes At Midway Plantation,27545,35.798183,-78.5050029,$,19192661018,FALSE,FALSE,FALSE,FALSE,FALSE,TRUE,FALSE,FALSE,FALSE,FALSE,FALSE,FALSE,FALSE,FALSE,FALSE,FALSE,FALSE,FALSE,FALSE,FALSE
lowes-foods-raleigh-5,lowes foods,FALSE,4,7,8440 Louisburg Rd,27616,35.89339128,-78.50965892,$$,19192661031,FALSE,FALSE,FALSE,FALSE,FALSE,FALSE,TRUE,FALSE,FALSE,FALSE,FALSE,FALSE,TRUE,FALSE,FALSE,FALSE,FALSE,FALSE,FALSE,FALSE
lowes-home-improvement-knightdale,lowe's home improvement,FALSE,3.5,10,7316 US 64 Hwy E,27545,35.79723571,-78.48324555,$$,19192661178,FALSE,FALSE,FALSE,FALSE,FALSE,FALSE,FALSE,FALSE,FALSE,FALSE,FALSE,FALSE,FALSE,FALSE,FALSE,FALSE,FALSE,FALSE,FALSE,FALSE
bojangles-knightdale,bojangles,FALSE,2.5,4,7525 Knightdale Blvd,27545,35.79946,-78.47566,$,19192662768,TRUE,FALSE,FALSE,FALSE,FALSE,FALSE,FALSE,FALSE,FALSE,FALSE,FALSE,FALSE,FALSE,FALSE,FALSE,FALSE,FALSE,FALSE,FALSE,FALSE
sports-page-knightdale,sports page,FALSE,4.5,12,835 N Smithfield Rd,27545,35.7961096,-78.4873904,$,19192663130,FALSE,FALSE,FALSE,TRUE,FALSE,FALSE,FALSE,FALSE,FALSE,FALSE,FALSE,FALSE,FALSE,FALSE,FALSE,FALSE,FALSE,FALSE,FALSE,FALSE
jumbo-china-raleigh-3,jumbo china,FALSE,3,18,3111 Leland Dr,27616,35.89296821,-78.51067069,$,19192663331,FALSE,FALSE,FALSE,FALSE,FALSE,FALSE,FALSE,FALSE,FALSE,TRUE,FALSE,FALSE,FALSE,FALSE,FALSE,FALSE,FALSE,FALSE,FALSE,FALSE
kfc-knightdale,kfc,FALSE,3,5,"7040 Highway 64, E.",27545,35.79792539,-78.49329064,"NA",19192664096,TRUE,FALSE,FALSE,FALSE,FALSE,FALSE,FALSE,FALSE,FALSE,FALSE,FALSE,FALSE,TRUE,FALSE,FALSE,FALSE,FALSE,FALSE,FALSE,FALSE
food-lion-knightdale,food lion,FALSE,3,4,7053 US 64 Hwy E,27545,35.80442,-78.42753,$$,19192665164,FALSE,FALSE,FALSE,FALSE,FALSE,FALSE,TRUE,FALSE,FALSE,FALSE,FALSE,FALSE,FALSE,FALSE,FALSE,FALSE,FALSE,FALSE,FALSE,FALSE
applebees-knightdale,applebee's,FALSE,3,18,6609 Knightdale Blvd,27545,35.79704,-78.50745,$$,19192665939,FALSE,FALSE,FALSE,TRUE,TRUE,FALSE,FALSE,FALSE,FALSE,FALSE,FALSE,FALSE,FALSE,FALSE,FALSE,FALSE,FALSE,FALSE,FALSE,FALSE
burger-king-knightdale,burger king,FALSE,2,4,7102 Knightdale Blvd,27545,35.79787,-78.4917,$,19192665966,FALSE,FALSE,FALSE,FALSE,TRUE,FALSE,FALSE,FALSE,FALSE,FALSE,FALSE,FALSE,FALSE,FALSE,FALSE,FALSE,FALSE,FALSE,FALSE,FALSE
hardees-knightdale,hardee's,FALSE,1,2,905 N Smithfield Rd,27545,35.79784,-78.48808,"NA",19192666118,FALSE,FALSE,FALSE,FALSE,TRUE,FALSE,FALSE,FALSE,FALSE,FALSE,FALSE,FALSE,FALSE,FALSE,FALSE,FALSE,FALSE,FALSE,FALSE,FALSE
five-guys-burgers-and-fries-knightdale,five guys burgers & fries,FALSE,3.5,21,1018 Shoppes At Midway Dr,27545,35.7982124,-78.504902,$,19192666664,FALSE,FALSE,FALSE,FALSE,TRUE,FALSE,FALSE,FALSE,FALSE,FALSE,FALSE,FALSE,FALSE,FALSE,FALSE,FALSE,FALSE,FALSE,FALSE,FALSE
mcdonalds-knightdale-2,mcdonald's,FALSE,1,1,7141 US 64 Hwy E,27545,35.80442,-78.42753,"NA",19192666700,TRUE,FALSE,FALSE,FALSE,TRUE,FALSE,FALSE,FALSE,FALSE,FALSE,FALSE,FALSE,FALSE,FALSE,FALSE,FALSE,FALSE,FALSE,FALSE,FALSE
riccobene-associates-family-dentistry-knightdale,riccobene associates family dentistry,FALSE,4,5,1001 Wide Waters Pkwy,27545,35.7941956,-78.5064247,"NA",19192666999,FALSE,FALSE,FALSE,FALSE,FALSE,FALSE,FALSE,FALSE,FALSE,FALSE,FALSE,FALSE,FALSE,FALSE,FALSE,FALSE,FALSE,FALSE,FALSE,FALSE
dickeys-barbecue-pit-knightdale,dickey's barbecue pit,FALSE,3,24,2001-C Widewaters Pkwy,27545,35.7950096,-78.506485,$$,19192667072,FALSE,FALSE,FALSE,FALSE,FALSE,FALSE,FALSE,FALSE,FALSE,FALSE,FALSE,FALSE,FALSE,FALSE,FALSE,FALSE,FALSE,TRUE,FALSE,FALSE
designs-by-donna-wendell,designs by donna,FALSE,2,5,36 N Main St,27591,35.7823486,-78.3696365,"NA",19192667878,FALSE,FALSE,FALSE,FALSE,FALSE,FALSE,FALSE,FALSE,FALSE,FALSE,FALSE,FALSE,FALSE,FALSE,FALSE,FALSE,FALSE,FALSE,FALSE,FALSE
damien-maass-dj-and-video-service-apex,damien maass dj & video service,FALSE,5,7,103 Sea Biscuit Ln,27539,35.66705,-78.7519499,"NA",19192674081,FALSE,FALSE,FALSE,FALSE,FALSE,FALSE,FALSE,FALSE,FALSE,FALSE,FALSE,FALSE,FALSE,FALSE,FALSE,FALSE,FALSE,FALSE,FALSE,FALSE
pizza-hut-apex-3,pizza hut,FALSE,3,14,301 N Salem,27502,35.73307432,-78.85017761,$,19192674517,FALSE,FALSE,TRUE,FALSE,FALSE,FALSE,FALSE,FALSE,FALSE,FALSE,FALSE,FALSE,TRUE,FALSE,FALSE,FALSE,FALSE,FALSE,FALSE,FALSE
wake-zone-espresso-apex,wake zone espresso,FALSE,4.5,68,6108 Old Jenks Rd,27523,35.7536659,-78.849411,$,19192674622,FALSE,FALSE,FALSE,FALSE,FALSE,FALSE,FALSE,FALSE,TRUE,FALSE,FALSE,FALSE,FALSE,FALSE,FALSE,FALSE,FALSE,FALSE,FALSE,FALSE
goin-postal-cary,goin postal,FALSE,4,5,Cary Park Town Ctr,27519,35.8215018,-78.90200615,"NA",19192674749,FALSE,FALSE,FALSE,FALSE,FALSE,FALSE,FALSE,FALSE,FALSE,FALSE,FALSE,FALSE,FALSE,FALSE,FALSE,FALSE,FALSE,FALSE,FALSE,FALSE
los-tres-magueyes-cary-4,los tres magueyes,FALSE,3.5,31,10120 Green Level Church Rd,27519,35.81989027,-78.90095921,$$,19192675444,FALSE,FALSE,FALSE,FALSE,FALSE,TRUE,FALSE,FALSE,FALSE,FALSE,FALSE,FALSE,FALSE,FALSE,FALSE,FALSE,FALSE,FALSE,FALSE,FALSE
chefs-palette-restaurant-and-bar-cary,chef's palette restaurant & bar,FALSE,4,113,3460 Ten Ten Rd,27518,35.70151646,-78.7931017,$$$,19192676011,FALSE,FALSE,FALSE,TRUE,FALSE,FALSE,FALSE,FALSE,FALSE,FALSE,FALSE,TRUE,FALSE,FALSE,TRUE,FALSE,FALSE,FALSE,FALSE,FALSE
the-beer-dispensary-apex,the beer dispensary,FALSE,4.5,24,112 N Salem St,27502,35.7311401,-78.8509903,$,19192676040,FALSE,FALSE,FALSE,FALSE,FALSE,FALSE,FALSE,FALSE,FALSE,FALSE,FALSE,FALSE,FALSE,FALSE,FALSE,FALSE,FALSE,FALSE,FALSE,FALSE
annas-pizzeria-apex,anna's pizzeria,FALSE,3,132,100 N Salem St,27502,35.7307599,-78.85126,$$,19192676237,FALSE,FALSE,TRUE,FALSE,FALSE,FALSE,FALSE,FALSE,FALSE,FALSE,TRUE,FALSE,FALSE,FALSE,FALSE,FALSE,FALSE,FALSE,FALSE,FALSE
highcraft-beer-market-cary,highcraft  beer market,FALSE,4.5,13,2716 NC Hwy 55,27519,35.7849092,-78.8710491,$$,19192676593,FALSE,FALSE,FALSE,FALSE,FALSE,FALSE,FALSE,FALSE,FALSE,FALSE,FALSE,FALSE,FALSE,FALSE,FALSE,FALSE,FALSE,FALSE,FALSE,FALSE
taqueria-las-delicias-apex,taqueria las delicias,FALSE,4.5,19,617 E Williams St,27502,35.72428741,-78.84648355,$,19192676656,FALSE,FALSE,FALSE,FALSE,FALSE,TRUE,FALSE,FALSE,FALSE,FALSE,FALSE,FALSE,FALSE,FALSE,FALSE,FALSE,FALSE,FALSE,FALSE,FALSE
lighthouse-deli-and-pizza-apex,lighthouse deli and pizza,FALSE,3.5,15,2125 Ten Ten Rd,27539,35.7207375,-78.8189316,$,19192676873,FALSE,FALSE,FALSE,FALSE,FALSE,FALSE,FALSE,FALSE,FALSE,FALSE,FALSE,FALSE,FALSE,TRUE,FALSE,FALSE,FALSE,FALSE,FALSE,FALSE
my-berry-frozen-yogurt-cafe-cary,my berry frozen yogurt cafe,FALSE,4,20,3460 Ten Ten Rd,27518,35.7015406,-78.7931259,$$,19192679768,FALSE,FALSE,FALSE,FALSE,FALSE,FALSE,FALSE,FALSE,FALSE,FALSE,FALSE,FALSE,FALSE,FALSE,FALSE,FALSE,FALSE,FALSE,FALSE,FALSE
robs-remodeling-raleigh,rob's remodeling,FALSE,3.5,8,1800-202 Avent Ridge Rd,27606,35.7555849,-78.7053088,"NA",19192680624,FALSE,FALSE,FALSE,FALSE,FALSE,FALSE,FALSE,FALSE,FALSE,FALSE,FALSE,FALSE,FALSE,FALSE,FALSE,FALSE,FALSE,FALSE,FALSE,FALSE
delectable-delectables-catering-durham,delectable-delectables catering,FALSE,1,1,1101 Chapel Hill St,27701,35.9965897,-78.9157867,"NA",19192685280,FALSE,FALSE,FALSE,FALSE,FALSE,FALSE,FALSE,FALSE,FALSE,FALSE,FALSE,FALSE,FALSE,FALSE,FALSE,FALSE,FALSE,FALSE,FALSE,FALSE
gonza-tacos-y-tequila-raleigh-2,gonza tacos y tequila,FALSE,4,76,2100 Hillsborough St,27607,35.7867508,-78.6633987,$$,19192688965,FALSE,FALSE,FALSE,FALSE,FALSE,TRUE,FALSE,FALSE,FALSE,FALSE,FALSE,FALSE,FALSE,FALSE,FALSE,FALSE,FALSE,FALSE,FALSE,FALSE
mcleans-ole-time-cafe-zebulon,mclean's ole time cafe,FALSE,4,37,418 W Gannon Ave,27597,35.82237,-78.32321,$$,19192690125,FALSE,FALSE,FALSE,TRUE,FALSE,FALSE,FALSE,TRUE,FALSE,FALSE,FALSE,FALSE,FALSE,FALSE,FALSE,FALSE,FALSE,FALSE,FALSE,FALSE
walmart-supercenter-zebulon,walmart supercenter,FALSE,5,2,841 E Gannon Ave,27597,35.83126799,-78.2968435,$,19192692221,FALSE,FALSE,FALSE,FALSE,FALSE,FALSE,TRUE,FALSE,FALSE,FALSE,FALSE,FALSE,FALSE,FALSE,FALSE,FALSE,FALSE,FALSE,FALSE,FALSE
carolina-mudcats-baseball-zebulon,carolina mudcats baseball,FALSE,4,12,1501 NC Highway 39,27597,35.81726,-78.27122,"NA",19192692287,FALSE,FALSE,FALSE,FALSE,FALSE,FALSE,FALSE,FALSE,FALSE,FALSE,FALSE,FALSE,FALSE,FALSE,FALSE,FALSE,FALSE,FALSE,FALSE,FALSE
subway-zebulon,subway,FALSE,4.5,3,Wallmart,27597,35.83119922,-78.29672387,$,19192692699,TRUE,TRUE,FALSE,FALSE,FALSE,FALSE,FALSE,FALSE,FALSE,FALSE,FALSE,FALSE,FALSE,FALSE,FALSE,FALSE,FALSE,FALSE,FALSE,FALSE
san-jose-restaurant-zebulon,san jose restaurant,FALSE,4,18,877 E Gannon Ave,27597,35.8301506,-78.2941818,$$,19192693399,FALSE,FALSE,FALSE,FALSE,FALSE,TRUE,FALSE,FALSE,FALSE,FALSE,FALSE,FALSE,FALSE,FALSE,FALSE,FALSE,FALSE,FALSE,FALSE,FALSE
fargo-steakhouse-zebulon,fargo steakhouse,FALSE,2.5,10,Food Lion Shopping Ctr,27597,35.8243208,-78.3147199,$$,19192693450,FALSE,FALSE,FALSE,FALSE,FALSE,FALSE,FALSE,FALSE,FALSE,FALSE,FALSE,FALSE,FALSE,FALSE,FALSE,FALSE,FALSE,FALSE,FALSE,FALSE
golden-china-zebulon,golden china,FALSE,3,5,182 Wakelon St,27597,35.832615,-78.3151259,$,19192694070,FALSE,FALSE,FALSE,FALSE,FALSE,FALSE,FALSE,FALSE,FALSE,TRUE,FALSE,FALSE,FALSE,FALSE,FALSE,FALSE,FALSE,FALSE,FALSE,FALSE
plaza-del-mariachi-zebulon,plaza del mariachi,FALSE,4,5,411 W Gannon Ave,27597,35.820797,-78.3227463,$,19192694464,FALSE,FALSE,FALSE,FALSE,FALSE,TRUE,FALSE,FALSE,FALSE,FALSE,FALSE,FALSE,FALSE,FALSE,FALSE,FALSE,FALSE,FALSE,FALSE,FALSE
milano-pizza-zebulon,milano pizza,FALSE,3.5,7,Triangle E Ctr,27597,35.82512,-78.31515,$,19192694488,FALSE,FALSE,TRUE,FALSE,FALSE,FALSE,FALSE,FALSE,FALSE,FALSE,FALSE,FALSE,FALSE,FALSE,FALSE,FALSE,FALSE,FALSE,FALSE,FALSE
italia-express-zebulon,italia express,FALSE,3,12,103 N Arendell Ave,27597,35.8213882,-78.3130569,$,19192695157,FALSE,TRUE,TRUE,FALSE,FALSE,FALSE,FALSE,FALSE,FALSE,FALSE,TRUE,FALSE,FALSE,FALSE,FALSE,FALSE,FALSE,FALSE,FALSE,FALSE
burger-king-zebulon,burger king,FALSE,3.5,3,636 W Gannon Ave,27597,35.82096,-78.329580000000007,$,19192695778,FALSE,FALSE,FALSE,FALSE,TRUE,FALSE,FALSE,FALSE,FALSE,FALSE,FALSE,FALSE,FALSE,FALSE,FALSE,FALSE,FALSE,FALSE,FALSE,FALSE
food-lion-zebulon,food lion,FALSE,5,1,114 Wakelon St,27597,35.8330441,-78.3192167,$$,19192696122,FALSE,FALSE,FALSE,FALSE,FALSE,FALSE,TRUE,FALSE,FALSE,FALSE,FALSE,FALSE,FALSE,FALSE,FALSE,FALSE,FALSE,FALSE,FALSE,FALSE
pizza-hut-zebulon,pizza hut,FALSE,2.5,8,151 Wakelon St,27597,35.83347,-78.31572,$$,19192696455,FALSE,FALSE,TRUE,FALSE,FALSE,FALSE,FALSE,FALSE,FALSE,FALSE,TRUE,FALSE,TRUE,FALSE,FALSE,FALSE,FALSE,FALSE,FALSE,FALSE
mcdonalds-zebulon,mcdonald's,FALSE,2,5,141 Wakelon St,27597,35.83345,-78.3172,$,19192696650,TRUE,FALSE,FALSE,FALSE,TRUE,FALSE,FALSE,FALSE,FALSE,FALSE,FALSE,FALSE,FALSE,FALSE,FALSE,FALSE,FALSE,FALSE,FALSE,FALSE
smithfields-chicken-n-bar-b-q-zebulon-2,smithfield's chicken 'n bar-b-q,FALSE,4.5,6,121 Wakelon St,27597,35.8334503,-78.3188019,$$,19192697009,FALSE,FALSE,FALSE,FALSE,FALSE,FALSE,FALSE,FALSE,FALSE,FALSE,FALSE,FALSE,FALSE,FALSE,FALSE,FALSE,FALSE,TRUE,FALSE,FALSE
little-caesars-pizza-zebulon,little caesars pizza,FALSE,4,4,100 Wakelon St,27597,35.83227654,-78.31870225,"NA",19192697211,FALSE,FALSE,TRUE,FALSE,FALSE,FALSE,FALSE,FALSE,FALSE,FALSE,FALSE,FALSE,FALSE,FALSE,FALSE,FALSE,FALSE,FALSE,FALSE,FALSE
whitley-furniture-galleries-zebulon,whitley furniture galleries,FALSE,3.5,11,101 W Vance St,27597,35.82088,-78.31278,$$$$,19192697447,FALSE,FALSE,FALSE,FALSE,FALSE,FALSE,FALSE,FALSE,FALSE,FALSE,FALSE,FALSE,FALSE,FALSE,FALSE,FALSE,FALSE,FALSE,FALSE,FALSE
hardees-zebulon,hardee's,FALSE,4,2,607 W Gannon Ave,27597,35.81998221,-78.32890181,$,19192697810,TRUE,FALSE,FALSE,FALSE,FALSE,FALSE,FALSE,FALSE,FALSE,FALSE,FALSE,FALSE,FALSE,FALSE,FALSE,FALSE,FALSE,FALSE,FALSE,FALSE
wangs-bistro-zebulon-2,wangs bistro,FALSE,3.5,16,877 E Gannon Ave,27597,35.8301506,-78.2941818,$,19192699788,FALSE,FALSE,FALSE,FALSE,FALSE,FALSE,FALSE,FALSE,FALSE,TRUE,FALSE,FALSE,FALSE,FALSE,FALSE,FALSE,FALSE,FALSE,FALSE,FALSE
cara-pierce-fonville-morisey-realty-raleigh,cara pierce - fonville morisey realty,FALSE,5,1,8100 Creedmoor Rd,27613,35.8977394,-78.68013,"NA",19192746593,FALSE,FALSE,FALSE,FALSE,FALSE,FALSE,FALSE,FALSE,FALSE,FALSE,FALSE,FALSE,FALSE,FALSE,FALSE,FALSE,FALSE,FALSE,FALSE,FALSE
barone-meatball-company-raleigh,barone meatball company,FALSE,3.5,30,,27615,35.8861371,-78.6455475,$$,19192750625,FALSE,FALSE,FALSE,FALSE,FALSE,FALSE,FALSE,FALSE,FALSE,FALSE,FALSE,FALSE,FALSE,FALSE,FALSE,FALSE,FALSE,FALSE,FALSE,FALSE
bojangles-raleigh-8,bojangles,FALSE,3,20,8680 Glenwood Ave,27617,35.8867416,-78.7432022,$,19192770600,TRUE,FALSE,FALSE,FALSE,FALSE,FALSE,FALSE,FALSE,FALSE,FALSE,FALSE,FALSE,FALSE,FALSE,FALSE,FALSE,FALSE,FALSE,FALSE,FALSE
americas-best-value-inn-crabtree-raleigh-raleigh,americas best value inn-crabtree/raleigh,FALSE,3.5,6,3921 Arrow Drive,27612,35.8359,-78.67437,$,19192778485,FALSE,FALSE,FALSE,FALSE,FALSE,FALSE,FALSE,FALSE,FALSE,FALSE,FALSE,FALSE,FALSE,FALSE,FALSE,FALSE,FALSE,FALSE,FALSE,FALSE
bjs-membership-club-raleigh,bj's membership club,FALSE,3,16,6301 Triangle Plantation Dr,27616,35.8736801,-78.5837402,$$,19192781000,FALSE,FALSE,FALSE,FALSE,FALSE,FALSE,TRUE,FALSE,FALSE,FALSE,FALSE,FALSE,FALSE,FALSE,FALSE,FALSE,FALSE,FALSE,FALSE,FALSE
wells-fargo-bank-raleigh-42,wells fargo bank,FALSE,2.5,2,3301 Edwards Mill Rd,27612,35.8267899,-78.7049332,"NA",19192781200,FALSE,FALSE,FALSE,FALSE,FALSE,FALSE,FALSE,FALSE,FALSE,FALSE,FALSE,FALSE,FALSE,FALSE,FALSE,FALSE,FALSE,FALSE,FALSE,FALSE
wells-fargo-bank-raleigh-37,wells fargo bank,FALSE,2,3,3500 W Millbrook Rd,27613,35.8638115,-78.7114792,"NA",19192781420,FALSE,FALSE,FALSE,FALSE,FALSE,FALSE,FALSE,FALSE,FALSE,FALSE,FALSE,FALSE,FALSE,FALSE,FALSE,FALSE,FALSE,FALSE,FALSE,FALSE
flights-restaurant-and-lounge-raleigh,flights restaurant & lounge,FALSE,3.5,66,4100 Main At North Hills St,27609,35.83612048,-78.64372165,$$$,19192781478,FALSE,FALSE,FALSE,FALSE,FALSE,FALSE,FALSE,TRUE,FALSE,FALSE,FALSE,TRUE,FALSE,FALSE,FALSE,FALSE,FALSE,FALSE,FALSE,FALSE
mia-francesca-raleigh-2,mia francesca,FALSE,3.5,117,4100 Main at North Hills St,27609,35.83626314,-78.64391419,$$,19192781525,FALSE,FALSE,FALSE,FALSE,FALSE,FALSE,FALSE,TRUE,FALSE,FALSE,TRUE,FALSE,FALSE,FALSE,FALSE,FALSE,FALSE,FALSE,FALSE,FALSE
residence-inn-raleigh-crabtree-valley-raleigh,residence inn raleigh crabtree valley,FALSE,3.5,13,2200 Summit Park Lane,27612,35.8345795,-78.675621,$$,19192793000,FALSE,FALSE,FALSE,FALSE,FALSE,FALSE,FALSE,FALSE,FALSE,FALSE,FALSE,FALSE,FALSE,FALSE,FALSE,FALSE,FALSE,FALSE,FALSE,FALSE
backyard-playground-holly-springs-2,backyard playground,FALSE,5,2,312 Wescott Ridge Dr,27540,35.66025,-78.78768,"NA",19192803488,FALSE,FALSE,FALSE,FALSE,FALSE,FALSE,FALSE,FALSE,FALSE,FALSE,FALSE,FALSE,FALSE,FALSE,FALSE,FALSE,FALSE,FALSE,FALSE,FALSE
the-pit-durham-2,the pit,FALSE,3.5,362,321 W Geer St,27701,36.0036747,-78.89979492,$$,19192823748,FALSE,FALSE,FALSE,FALSE,FALSE,FALSE,FALSE,FALSE,FALSE,FALSE,FALSE,FALSE,FALSE,FALSE,FALSE,FALSE,FALSE,TRUE,FALSE,FALSE
quality-inn-kenly,quality inn,FALSE,3.5,7,405 S Church St,27542,35.594171,-78.131303,$,19192841000,FALSE,FALSE,FALSE,FALSE,FALSE,FALSE,FALSE,FALSE,FALSE,FALSE,FALSE,FALSE,FALSE,FALSE,FALSE,FALSE,FALSE,FALSE,FALSE,FALSE
arbys-kenly,arby's,FALSE,4,6,1000 Truckstop Rd,27542,35.5761185,-78.1458054,$$,19192845749,TRUE,TRUE,FALSE,FALSE,FALSE,FALSE,FALSE,FALSE,FALSE,FALSE,FALSE,FALSE,FALSE,FALSE,FALSE,FALSE,FALSE,FALSE,FALSE,FALSE
dunkin-donuts-holly-springs-2,dunkin' donuts,FALSE,1.5,8,1005 Werrington Dr,27540,35.63721731,-78.83024151,$,19192850058,FALSE,FALSE,FALSE,FALSE,FALSE,FALSE,FALSE,FALSE,TRUE,FALSE,FALSE,FALSE,FALSE,FALSE,FALSE,FALSE,FALSE,FALSE,FALSE,FALSE
ovation-cinema-grill-holly-springs-2,ovation cinema grill,FALSE,3.5,3,320 Grand Hill Pl,27540,35.66161,-78.84899,"NA",19192850580,FALSE,FALSE,FALSE,FALSE,FALSE,FALSE,FALSE,FALSE,FALSE,FALSE,FALSE,FALSE,FALSE,FALSE,FALSE,FALSE,FALSE,FALSE,FALSE,FALSE
greek-basma-holly-springs,greek basma,FALSE,4.5,5,7272 Gb Alford Hwy,27540,35.63563038,-78.83414744,$$,19192850808,FALSE,FALSE,FALSE,FALSE,FALSE,FALSE,FALSE,FALSE,FALSE,FALSE,FALSE,TRUE,FALSE,FALSE,FALSE,FALSE,FALSE,FALSE,FALSE,FALSE
dunkin-donuts-holly-springs,dunkin' donuts,FALSE,1.5,21,1501 Werrington Dr,27540,35.637597,-78.830159,$,19192850958,FALSE,FALSE,FALSE,FALSE,FALSE,FALSE,FALSE,FALSE,TRUE,FALSE,FALSE,FALSE,FALSE,FALSE,FALSE,FALSE,FALSE,FALSE,FALSE,FALSE
lauris-party-house-holly-springs,lauri's party house,FALSE,4,6,7264 Gb Alford Hwy,27540,35.6347296,-78.8292618,"NA",19192851231,FALSE,FALSE,FALSE,FALSE,FALSE,FALSE,FALSE,FALSE,FALSE,FALSE,FALSE,FALSE,FALSE,FALSE,FALSE,FALSE,FALSE,FALSE,FALSE,FALSE
lincoln-brewing-company-fuquay-varina,lincoln brewing company,FALSE,3.5,9,2912 N Main St,27526,35.61639157,-78.73392357,$$,19192852318,FALSE,FALSE,FALSE,FALSE,FALSE,FALSE,FALSE,FALSE,FALSE,FALSE,FALSE,FALSE,FALSE,FALSE,FALSE,FALSE,FALSE,FALSE,FALSE,FALSE
my-way-tavern-holly-springs,my way tavern,FALSE,4,117,301 W Center St,27450,35.65097,-78.83424,$$,19192852412,FALSE,FALSE,FALSE,TRUE,FALSE,FALSE,FALSE,FALSE,FALSE,FALSE,FALSE,FALSE,FALSE,FALSE,FALSE,FALSE,FALSE,FALSE,FALSE,FALSE
annas-pizzeria-fuquay-varina,anna's pizzeria,FALSE,3.5,40,138 S Main St,27526,35.58309,-78.80003,$$,19192852497,FALSE,FALSE,TRUE,FALSE,FALSE,FALSE,FALSE,FALSE,FALSE,FALSE,TRUE,FALSE,FALSE,FALSE,FALSE,FALSE,FALSE,FALSE,FALSE,FALSE
thanks-a-latte-holly-springs,thanks a latte,FALSE,4.5,30,1118 Kentworth Dr,27540,35.6403191,-78.8324831,$,19192853729,FALSE,FALSE,FALSE,FALSE,FALSE,FALSE,FALSE,FALSE,TRUE,FALSE,FALSE,FALSE,FALSE,FALSE,FALSE,FALSE,FALSE,FALSE,FALSE,FALSE
camos-brothers-pizza-fuquay-varina,camos brothers pizza,FALSE,3,16,2916 N Main St,27526,35.6161385,-78.7341385,$$,19192853749,FALSE,FALSE,TRUE,FALSE,FALSE,FALSE,FALSE,FALSE,FALSE,FALSE,TRUE,FALSE,FALSE,FALSE,FALSE,FALSE,FALSE,FALSE,FALSE,FALSE
eggs-up-grill-fuquay-varina,eggs up grill,FALSE,4.5,29,Sexton Commons,27526,35.5934528,-78.7702175,$,19192854463,FALSE,FALSE,FALSE,FALSE,FALSE,FALSE,FALSE,TRUE,FALSE,FALSE,FALSE,FALSE,FALSE,FALSE,FALSE,FALSE,FALSE,FALSE,FALSE,FALSE
bagels-plus-fuquay-varina,bagels plus,FALSE,4,54,100 Dickens Rd,27526,35.6154964,-78.8112189,$,19192854980,FALSE,FALSE,FALSE,FALSE,FALSE,FALSE,FALSE,FALSE,FALSE,FALSE,FALSE,FALSE,FALSE,FALSE,FALSE,FALSE,FALSE,FALSE,FALSE,FALSE
panera-bread-durham-5,panera bread,FALSE,2.5,37,737 9th St,27705,36.00963355,-78.92236412,$,19192860002,FALSE,TRUE,FALSE,FALSE,FALSE,FALSE,FALSE,FALSE,FALSE,FALSE,FALSE,FALSE,FALSE,FALSE,FALSE,TRUE,FALSE,FALSE,FALSE,FALSE
the-cosmic-cantina-durham,the cosmic cantina,FALSE,3.5,234,1920 Perry St,27705,36.00782,-78.92185,$,19192861875,TRUE,FALSE,FALSE,FALSE,FALSE,TRUE,FALSE,FALSE,FALSE,FALSE,FALSE,FALSE,FALSE,FALSE,FALSE,FALSE,FALSE,FALSE,FALSE,FALSE
the-mad-hatters-durham,the mad hatter's,FALSE,3.5,215,1802 W Main St,27705,36.0063699,-78.92014,$$,19192861987,FALSE,FALSE,FALSE,FALSE,FALSE,FALSE,FALSE,TRUE,FALSE,FALSE,FALSE,FALSE,FALSE,FALSE,FALSE,FALSE,FALSE,FALSE,TRUE,FALSE
devils-pizzeria-and-restaurant-durham-19,devil's pizzeria & restaurant,FALSE,4,90,742 9th St,27705,36.0092221,-78.9219799,$,19192863090,FALSE,FALSE,FALSE,FALSE,FALSE,FALSE,FALSE,FALSE,FALSE,FALSE,TRUE,FALSE,TRUE,FALSE,FALSE,FALSE,FALSE,FALSE,FALSE,FALSE
juju-durham-durham-2,juju durham,FALSE,4,163,737 9th St,27705,36.00952,-78.92278,$$,19192863555,FALSE,FALSE,FALSE,FALSE,FALSE,FALSE,FALSE,FALSE,FALSE,FALSE,FALSE,FALSE,FALSE,FALSE,TRUE,FALSE,FALSE,FALSE,FALSE,FALSE
chubbys-tacos-durham,chubby's tacos,FALSE,4,206,748 9th St,27705,36.009234,-78.9218812,$,19192864499,FALSE,FALSE,FALSE,FALSE,FALSE,TRUE,FALSE,FALSE,FALSE,FALSE,FALSE,FALSE,FALSE,FALSE,FALSE,FALSE,FALSE,FALSE,FALSE,FALSE
joe-van-gogh-durham-4,joe van gogh,FALSE,4,98,1104B Broad St,27705,36.015743,-78.9190875,$,19192864800,FALSE,FALSE,FALSE,FALSE,FALSE,FALSE,FALSE,FALSE,TRUE,FALSE,FALSE,FALSE,FALSE,FALSE,FALSE,FALSE,FALSE,FALSE,FALSE,FALSE
banhs-cuisine-durham-2,banh's cuisine,FALSE,4,82,750 9th St,27705,36.00944,-78.9217199,$,19192865073,FALSE,FALSE,FALSE,FALSE,FALSE,FALSE,FALSE,FALSE,FALSE,TRUE,FALSE,FALSE,FALSE,FALSE,FALSE,FALSE,FALSE,FALSE,FALSE,FALSE
blacknall-memorial-presbyterian-church-durham,blacknall memorial presbyterian church,FALSE,5,1,1902 Perry St,27705,36.00788,-78.92134,"NA",19192865586,FALSE,FALSE,FALSE,FALSE,FALSE,FALSE,FALSE,FALSE,FALSE,FALSE,FALSE,FALSE,FALSE,FALSE,FALSE,FALSE,FALSE,FALSE,FALSE,FALSE
local-22-durham,local 22,FALSE,3.5,147,2200 W Main St,27705,36.008191,-78.925592,$$,19192869755,FALSE,FALSE,FALSE,FALSE,FALSE,FALSE,FALSE,FALSE,FALSE,FALSE,FALSE,TRUE,FALSE,FALSE,TRUE,FALSE,FALSE,FALSE,FALSE,FALSE
blu-seafood-and-bar-durham-2,blu seafood & bar,FALSE,4,198,2002 Hillsborough Rd,27705,36.0101969,-78.9221357,$$,19192869777,FALSE,FALSE,FALSE,FALSE,FALSE,FALSE,FALSE,FALSE,FALSE,FALSE,FALSE,FALSE,FALSE,FALSE,FALSE,FALSE,TRUE,FALSE,FALSE,FALSE
the-michelle-roberts-real-estate-team-cary,the michelle roberts real estate team,FALSE,5,1,201 Shannon Oaks Cir,27511,35.7594843,-78.784688,"NA",19192898950,FALSE,FALSE,FALSE,FALSE,FALSE,FALSE,FALSE,FALSE,FALSE,FALSE,FALSE,FALSE,FALSE,FALSE,FALSE,FALSE,FALSE,FALSE,FALSE,FALSE
chick-fil-a-raleigh-12,chick-fil-a,FALSE,3.5,20,8901 Brier Creek Pkwy,27617,35.90103,-78.790525,$,19192930100,TRUE,FALSE,FALSE,FALSE,FALSE,FALSE,FALSE,FALSE,FALSE,FALSE,FALSE,FALSE,FALSE,FALSE,FALSE,FALSE,FALSE,FALSE,FALSE,FALSE
starbucks-durham-4,starbucks,FALSE,3.5,40,4834 NC Hwy 55,27713,35.8993301,-78.8970718,$,19192930232,FALSE,FALSE,FALSE,FALSE,FALSE,FALSE,FALSE,FALSE,TRUE,FALSE,FALSE,FALSE,FALSE,FALSE,FALSE,FALSE,FALSE,FALSE,FALSE,FALSE
